{
"type": "FeatureCollection",
"name": "Servicios de Agua y Luz",
"crs": { "type": "name", "properties": { "name": "urn:ogc:def:crs:OGC:1.3:CRS84" } },
"features": [
{ "type": "Feature", "properties": { "AMIE": "17H00581", "NOM_INSTIT": "UNIDAD EDUCATIVA FISCAL \"DR JOSÉ MARÍA VELASCO IBARRA\"", "TE_fin": "MATRIZ", "ESTADO_IE_": "REGULAR", "Servicio_E": "Sí", "Servicio_A": "Sí", "Longitud": -78.482948, "Latitud": -0.173853 }, "geometry": { "type": "Point", "coordinates": [ -78.4829477, -0.17385306 ] } },
{ "type": "Feature", "properties": { "AMIE": "07H00454", "NOM_INSTIT": "ESCUELA DE EDUCACIÓN BÁSICA AURELIO SOLIS", "TE_fin": "MATRIZ", "ESTADO_IE_": "REGULAR", "Servicio_E": "Sí", "Servicio_A": "Sí", "Longitud": -80.057382, "Latitud": -3.637288 }, "geometry": { "type": "Point", "coordinates": [ -80.0573815, -3.637287884 ] } },
{ "type": "Feature", "properties": { "AMIE": "11H00511", "NOM_INSTIT": "ESCUELA DE EDUCACIÓN BÁSICA LUZ RODRIGUEZ DE CORONEL", "TE_fin": "MATRIZ", "ESTADO_IE_": "MALO", "Servicio_E": "Sí", "Servicio_A": "Sí", "Longitud": -79.61086, "Latitud": -4.195781 }, "geometry": { "type": "Point", "coordinates": [ -79.61086021, -4.195781432 ] } },
{ "type": "Feature", "properties": { "AMIE": "07H01059", "NOM_INSTIT": "UNIDAD EDUCATIVA PCEI SANTA ROSA", "TE_fin": "MATRIZ", "ESTADO_IE_": "S/I", "Servicio_E": "No", "Servicio_A": "Sí", "Longitud": -79.959112, "Latitud": -3.452805 }, "geometry": { "type": "Point", "coordinates": [ -79.95911193, -3.452805184 ] } },
{ "type": "Feature", "properties": { "AMIE": "17H02108", "NOM_INSTIT": "UNIDAD EDUCATIVA “TUMBACO”", "TE_fin": "MATRIZ", "ESTADO_IE_": "REGULAR", "Servicio_E": "Sí", "Servicio_A": "Sí", "Longitud": -78.376572, "Latitud": -0.224637 }, "geometry": { "type": "Point", "coordinates": [ -78.37657204, -0.224637139 ] } },
{ "type": "Feature", "properties": { "AMIE": "17H00281", "NOM_INSTIT": "UNIDAD EDUCATIVA FISCAL “RAÚL ANDRADE”", "TE_fin": "MATRIZ", "ESTADO_IE_": "REGULAR", "Servicio_E": "Sí", "Servicio_A": "Sí", "Longitud": -78.463401, "Latitud": -0.157833 }, "geometry": { "type": "Point", "coordinates": [ -78.46340098, -0.157832954 ] } },
{ "type": "Feature", "properties": { "AMIE": "08H00024", "NOM_INSTIT": "ESCUELA EGB DOCTOR RICARDO PARDES ROMERO", "TE_fin": "MATRIZ", "ESTADO_IE_": "REGULAR", "Servicio_E": "Sí", "Servicio_A": "Sí", "Longitud": -79.659467, "Latitud": 0.985745 }, "geometry": { "type": "Point", "coordinates": [ -79.65946659, 0.985744987 ] } },
{ "type": "Feature", "properties": { "AMIE": "09H00514", "NOM_INSTIT": "UNIDAD EDUCATIVA FISCAL PCEI REAL AUDIENCIA DE QUITO", "TE_fin": "MATRIZ", "ESTADO_IE_": "BUENO", "Servicio_E": "Sí", "Servicio_A": "Sí", "Longitud": -79.906219, "Latitud": -2.207754 }, "geometry": { "type": "Point", "coordinates": [ -79.90621905, -2.207754352 ] } },
{ "type": "Feature", "properties": { "AMIE": "09H01439", "NOM_INSTIT": "UNIDAD EDUCATIVA PCEI MANUEL WOLF HERRERA", "TE_fin": "MATRIZ", "ESTADO_IE_": "DETERIORO", "Servicio_E": "Sí", "Servicio_A": "Sí", "Longitud": -79.958991, "Latitud": -2.091987 }, "geometry": { "type": "Point", "coordinates": [ -79.95899095, -2.09198659 ] } },
{ "type": "Feature", "properties": { "AMIE": "09H00447", "NOM_INSTIT": "UNIDAD EDUCATIVA FISCAL PCEI DR. ALBERTO CABEZAS Y CABEZAS", "TE_fin": "MATRIZ", "ESTADO_IE_": "BUENO", "Servicio_E": "Sí", "Servicio_A": "Sí", "Longitud": -79.980609, "Latitud": -2.120104 }, "geometry": { "type": "Point", "coordinates": [ -79.9806092, -2.120104032 ] } },
{ "type": "Feature", "properties": { "AMIE": "09B00022", "NOM_INSTIT": "UNIDAD EDUCATIVA FISCAL INTERCULTURAL BILINGUE JAIME ROLDOS AGUILERA", "TE_fin": "MATRIZ", "ESTADO_IE_": "MALO", "Servicio_E": "Sí", "Servicio_A": "Sí", "Longitud": -79.944045, "Latitud": -2.123932 }, "geometry": { "type": "Point", "coordinates": [ -79.9440445, -2.123932015 ] } },
{ "type": "Feature", "properties": { "AMIE": "12H00175", "NOM_INSTIT": "CENTRO DE EDUCACIÓN INICIAL \"MARIETA GONZALEZ DE MANTILLA\"", "TE_fin": "MATRIZ", "ESTADO_IE_": "MALO", "Servicio_E": "Sí", "Servicio_A": "Sí", "Longitud": -79.402392, "Latitud": -1.958288 }, "geometry": { "type": "Point", "coordinates": [ -79.40239163, -1.958288343 ] } },
{ "type": "Feature", "properties": { "AMIE": "11H00257", "NOM_INSTIT": "UNIDAD EDUCATIVA DR. LUIS FELIPE ZAPATER ÁLVAREZ BLANCO", "TE_fin": "MATRIZ", "ESTADO_IE_": "REGULAR", "Servicio_E": "Sí", "Servicio_A": "Sí", "Longitud": -79.239538, "Latitud": -3.958175 }, "geometry": { "type": "Point", "coordinates": [ -79.23953784, -3.958174641 ] } },
{ "type": "Feature", "properties": { "AMIE": "19H00374", "NOM_INSTIT": "UNIDAD EDUCATIVA GENERAL PINTAG", "TE_fin": "MATRIZ", "ESTADO_IE_": "S/I", "Servicio_E": "No", "Servicio_A": "Sí", "Longitud": -78.811388, "Latitud": -3.908736 }, "geometry": { "type": "Point", "coordinates": [ -78.81138764, -3.908735743 ] } },
{ "type": "Feature", "properties": { "AMIE": "19H00567", "NOM_INSTIT": "ESCUELA DE EDUCACIÓN BÁSICA VÍCTOR REYES CÁRDENAS", "TE_fin": "MATRIZ", "ESTADO_IE_": "S/I", "Servicio_E": "No", "Servicio_A": "No", "Longitud": -78.659297, "Latitud": -4.33979 }, "geometry": { "type": "Point", "coordinates": [ -78.65929714, -4.339790011 ] } },
{ "type": "Feature", "properties": { "AMIE": "10H00478", "NOM_INSTIT": "ESCUELA DE EDUCACIÓN BÁSICA \"PROVINCIA DE PASTAZA\"", "TE_fin": "MATRIZ", "ESTADO_IE_": "REGULAR", "Servicio_E": "Sí", "Servicio_A": "Sí", "Longitud": -78.561533, "Latitud": 0.213467 }, "geometry": { "type": "Point", "coordinates": [ -78.56153259, 0.213466575 ] } },
{ "type": "Feature", "properties": { "AMIE": "12H00045", "NOM_INSTIT": "UNIDAD EDUCATIVA EUGENIO ESPEJO", "TE_fin": "ESTABLECIMIENTO", "ESTADO_IE_": "REGULAR", "Servicio_E": "Sí", "Servicio_A": "Sí", "Longitud": -79.52382, "Latitud": -1.806637 }, "geometry": { "type": "Point", "coordinates": [ -79.5238202, -1.806636707 ] } },
{ "type": "Feature", "properties": { "AMIE": "12H00045", "NOM_INSTIT": "UNIDAD EDUCATIVA EUGENIO ESPEJO", "TE_fin": "ESTABLECIMIENTO", "ESTADO_IE_": "REGULAR", "Servicio_E": "Sí", "Servicio_A": "Sí", "Longitud": -79.52382, "Latitud": -1.806637 }, "geometry": { "type": "Point", "coordinates": [ -79.5238202, -1.806636707 ] } },
{ "type": "Feature", "properties": { "AMIE": "12H00045", "NOM_INSTIT": "UNIDAD EDUCATIVA EUGENIO ESPEJO", "TE_fin": "ESTABLECIMIENTO", "ESTADO_IE_": "REGULAR", "Servicio_E": "Sí", "Servicio_A": "Sí", "Longitud": -79.52382, "Latitud": -1.806637 }, "geometry": { "type": "Point", "coordinates": [ -79.5238202, -1.806636707 ] } },
{ "type": "Feature", "properties": { "AMIE": "08H00795", "NOM_INSTIT": "COLEGIO DE BACHILLERATO \"SIMÓN PLATA TORRES\"", "TE_fin": "MATRIZ", "ESTADO_IE_": "REGULAR", "Servicio_E": "Sí", "Servicio_A": "Sí", "Longitud": -79.471315, "Latitud": 0.326129 }, "geometry": { "type": "Point", "coordinates": [ -79.47131454, 0.326129203 ] } },
{ "type": "Feature", "properties": { "AMIE": "10H00456", "NOM_INSTIT": "UNIDAD EDUCATIVA “ULPIANO NAVARRO”", "TE_fin": "MATRIZ", "ESTADO_IE_": "REGULAR", "Servicio_E": "Sí", "Servicio_A": "Sí", "Longitud": -78.291013, "Latitud": 0.236899 }, "geometry": { "type": "Point", "coordinates": [ -78.29101296, 0.236899444 ] } },
{ "type": "Feature", "properties": { "AMIE": "10H00456", "NOM_INSTIT": "UNIDAD EDUCATIVA “ULPIANO NAVARRO”", "TE_fin": "ESTABLECIMIENTO", "ESTADO_IE_": "REGULAR", "Servicio_E": "Sí", "Servicio_A": "Sí", "Longitud": -78.291013, "Latitud": 0.236899 }, "geometry": { "type": "Point", "coordinates": [ -78.29101296, 0.236899444 ] } },
{ "type": "Feature", "properties": { "AMIE": "10H00456", "NOM_INSTIT": "UNIDAD EDUCATIVA “ULPIANO NAVARRO”", "TE_fin": "ESTABLECIMIENTO", "ESTADO_IE_": "REGULAR", "Servicio_E": "Sí", "Servicio_A": "Sí", "Longitud": -78.291013, "Latitud": 0.236899 }, "geometry": { "type": "Point", "coordinates": [ -78.29101296, 0.236899444 ] } },
{ "type": "Feature", "properties": { "AMIE": "14B00359", "NOM_INSTIT": "UNIDAD EDUCATIVA COMUNITARIA INTERCULTURAL BILINGÜE \"YAAS-NUNKA\"", "TE_fin": "MATRIZ", "ESTADO_IE_": "REGULAR", "Servicio_E": "No", "Servicio_A": "Sí", "Longitud": -77.397667, "Latitud": -2.652306 }, "geometry": { "type": "Point", "coordinates": [ -77.39766665, -2.652305578 ] } },
{ "type": "Feature", "properties": { "AMIE": "09H02977", "NOM_INSTIT": "ESCUELA DE EDUCACIÓN BÁSICA 23 DE AGOSTO", "TE_fin": "MATRIZ", "ESTADO_IE_": "REGULAR", "Servicio_E": "Sí", "Servicio_A": "Sí", "Longitud": -79.856551, "Latitud": -1.283491 }, "geometry": { "type": "Point", "coordinates": [ -79.85655126, -1.283491052 ] } },
{ "type": "Feature", "properties": { "AMIE": "09H03184", "NOM_INSTIT": "ESCUELA DE EDUCACIÓN BÁSICA EDUCACIÓN Y TRABAJO", "TE_fin": "MATRIZ", "ESTADO_IE_": "BUENO", "Servicio_E": "Sí", "Servicio_A": "Sí", "Longitud": -80.170177, "Latitud": -1.593845 }, "geometry": { "type": "Point", "coordinates": [ -80.17017692, -1.593845445 ] } },
{ "type": "Feature", "properties": { "AMIE": "16B00002", "NOM_INSTIT": "CENTRO EDUCATIVO COMUNITARIO INTERCULTURAL BILINGÜE DE EDUCACIÓN BÁSICA ÑUKANCHIK ALLPA", "TE_fin": "MATRIZ", "ESTADO_IE_": "REGULAR", "Servicio_E": "Sí", "Servicio_A": "Sí", "Longitud": -77.994004, "Latitud": -1.498152 }, "geometry": { "type": "Point", "coordinates": [ -77.99400355, -1.498152422 ] } },
{ "type": "Feature", "properties": { "AMIE": "05H00679", "NOM_INSTIT": "UNIDAD EDUCATIVA MARISCAL ANTONIO JOSÉ DE SUCRE", "TE_fin": "MATRIZ", "ESTADO_IE_": "REGULAR", "Servicio_E": "Sí", "Servicio_A": "Sí", "Longitud": -78.667508, "Latitud": -0.8425 }, "geometry": { "type": "Point", "coordinates": [ -78.6675085, -0.842499507 ] } },
{ "type": "Feature", "properties": { "AMIE": "05H00679", "NOM_INSTIT": "UNIDAD EDUCATIVA MARISCAL ANTONIO JOSÉ DE SUCRE", "TE_fin": "ESTABLECIMIENTO", "ESTADO_IE_": "REGULAR", "Servicio_E": "Sí", "Servicio_A": "Sí", "Longitud": -78.667508, "Latitud": -0.8425 }, "geometry": { "type": "Point", "coordinates": [ -78.6675085, -0.842499507 ] } },
{ "type": "Feature", "properties": { "AMIE": "06H00343", "NOM_INSTIT": "UNIDAD EDUCATIVA 21 DE ABRIL", "TE_fin": "MATRIZ", "ESTADO_IE_": "REGULAR", "Servicio_E": "Sí", "Servicio_A": "Sí", "Longitud": -78.645353, "Latitud": -1.817668 }, "geometry": { "type": "Point", "coordinates": [ -78.64535279, -1.817668432 ] } },
{ "type": "Feature", "properties": { "AMIE": "06H00343", "NOM_INSTIT": "UNIDAD EDUCATIVA 21 DE ABRIL", "TE_fin": "ESTABLECIMIENTO", "ESTADO_IE_": "REGULAR", "Servicio_E": "Sí", "Servicio_A": "Sí", "Longitud": -78.645353, "Latitud": -1.817668 }, "geometry": { "type": "Point", "coordinates": [ -78.64535279, -1.817668432 ] } },
{ "type": "Feature", "properties": { "AMIE": "17H02418", "NOM_INSTIT": "UNIDAD EDUCATIVA “CARLOS LARCO HIDALGO”", "TE_fin": "MATRIZ", "ESTADO_IE_": "REGULAR", "Servicio_E": "Sí", "Servicio_A": "Sí", "Longitud": -78.445447, "Latitud": -0.327899 }, "geometry": { "type": "Point", "coordinates": [ -78.44544717, -0.327899085 ] } },
{ "type": "Feature", "properties": { "AMIE": "17H02418", "NOM_INSTIT": "UNIDAD EDUCATIVA “CARLOS LARCO HIDALGO”", "TE_fin": "ESTABLECIMIENTO", "ESTADO_IE_": "REGULAR", "Servicio_E": "Sí", "Servicio_A": "Sí", "Longitud": -78.445447, "Latitud": -0.327899 }, "geometry": { "type": "Point", "coordinates": [ -78.44544717, -0.327899085 ] } },
{ "type": "Feature", "properties": { "AMIE": "17H02418", "NOM_INSTIT": "UNIDAD EDUCATIVA “CARLOS LARCO HIDALGO”", "TE_fin": "ESTABLECIMIENTO", "ESTADO_IE_": "REGULAR", "Servicio_E": "Sí", "Servicio_A": "Sí", "Longitud": -78.445447, "Latitud": -0.327899 }, "geometry": { "type": "Point", "coordinates": [ -78.44544717, -0.327899085 ] } },
{ "type": "Feature", "properties": { "AMIE": "08B00013", "NOM_INSTIT": "CENTRO EDUCATIVO COMUNITARIA INTERCULTURAL BILINGÜE DE EDUCACION BASICA 24 DE MAYO", "TE_fin": "MATRIZ", "ESTADO_IE_": "REGULAR", "Servicio_E": "Sí", "Servicio_A": "Sí", "Longitud": -78.547757, "Latitud": 0.91162 }, "geometry": { "type": "Point", "coordinates": [ -78.54775743, 0.91162025 ] } },
{ "type": "Feature", "properties": { "AMIE": "06H00854", "NOM_INSTIT": "UNIDAD EDUCATIVA \"CHUNCHI\"", "TE_fin": "ESTABLECIMIENTO", "ESTADO_IE_": "MALO", "Servicio_E": "Sí", "Servicio_A": "Sí", "Longitud": -78.923995, "Latitud": -2.289156 }, "geometry": { "type": "Point", "coordinates": [ -78.92399467, -2.289156071 ] } },
{ "type": "Feature", "properties": { "AMIE": "06H00854", "NOM_INSTIT": "UNIDAD EDUCATIVA \"CHUNCHI\"", "TE_fin": "ESTABLECIMIENTO", "ESTADO_IE_": "MALO", "Servicio_E": "Sí", "Servicio_A": "Sí", "Longitud": -78.923995, "Latitud": -2.289156 }, "geometry": { "type": "Point", "coordinates": [ -78.92399467, -2.289156071 ] } },
{ "type": "Feature", "properties": { "AMIE": "06H00854", "NOM_INSTIT": "UNIDAD EDUCATIVA \"CHUNCHI\"", "TE_fin": "ESTABLECIMIENTO", "ESTADO_IE_": "MALO", "Servicio_E": "Sí", "Servicio_A": "Sí", "Longitud": -78.923995, "Latitud": -2.289156 }, "geometry": { "type": "Point", "coordinates": [ -78.92399467, -2.289156071 ] } },
{ "type": "Feature", "properties": { "AMIE": "06H00854", "NOM_INSTIT": "UNIDAD EDUCATIVA \"CHUNCHI\"", "TE_fin": "ESTABLECIMIENTO", "ESTADO_IE_": "MALO", "Servicio_E": "Sí", "Servicio_A": "Sí", "Longitud": -78.923995, "Latitud": -2.289156 }, "geometry": { "type": "Point", "coordinates": [ -78.92399467, -2.289156071 ] } },
{ "type": "Feature", "properties": { "AMIE": "18B00064", "NOM_INSTIT": "UNIDAD EDUCATIVA COMUNITARIA INTERCULTURAL BILINGÜE \"HUAYNA CÁPAC\"", "TE_fin": "ESTABLECIMIENTO", "ESTADO_IE_": "REGULAR", "Servicio_E": "Sí", "Servicio_A": "Sí", "Longitud": -78.683236, "Latitud": -1.317059 }, "geometry": { "type": "Point", "coordinates": [ -78.68323614, -1.317059276 ] } },
{ "type": "Feature", "properties": { "AMIE": "18B00064", "NOM_INSTIT": "UNIDAD EDUCATIVA COMUNITARIA INTERCULTURAL BILINGÜE \"HUAYNA CÁPAC\"", "TE_fin": "MATRIZ", "ESTADO_IE_": "REGULAR", "Servicio_E": "Sí", "Servicio_A": "Sí", "Longitud": -78.683236, "Latitud": -1.317059 }, "geometry": { "type": "Point", "coordinates": [ -78.68323614, -1.317059276 ] } },
{ "type": "Feature", "properties": { "AMIE": "18H00313", "NOM_INSTIT": "UNIDAD EDUCATIVA SANTA ROSA", "TE_fin": "ESTABLECIMIENTO", "ESTADO_IE_": "REGULAR", "Servicio_E": "Sí", "Servicio_A": "Sí", "Longitud": -78.575656, "Latitud": -1.283276 }, "geometry": { "type": "Point", "coordinates": [ -78.57565632, -1.283276389 ] } },
{ "type": "Feature", "properties": { "AMIE": "18H00313", "NOM_INSTIT": "UNIDAD EDUCATIVA SANTA ROSA", "TE_fin": "MATRIZ", "ESTADO_IE_": "REGULAR", "Servicio_E": "Sí", "Servicio_A": "Sí", "Longitud": -78.575656, "Latitud": -1.283276 }, "geometry": { "type": "Point", "coordinates": [ -78.57565632, -1.283276389 ] } },
{ "type": "Feature", "properties": { "AMIE": "11H00729", "NOM_INSTIT": "ESCUELA DE EDUCACIÓN BÁSICA VILCABAMBA", "TE_fin": "MATRIZ", "ESTADO_IE_": "S/I", "Servicio_E": "Sí", "Servicio_A": "Sí", "Longitud": -79.989922, "Latitud": -4.152757 }, "geometry": { "type": "Point", "coordinates": [ -79.98992246, -4.15275653 ] } },
{ "type": "Feature", "properties": { "AMIE": "23H00453", "NOM_INSTIT": "UNIDAD EDUCATIVA MARTÍNEZ MERA", "TE_fin": "MATRIZ", "ESTADO_IE_": "S/I", "Servicio_E": "No", "Servicio_A": "Sí", "Longitud": -78.953859, "Latitud": -0.319868 }, "geometry": { "type": "Point", "coordinates": [ -78.95385921, -0.319867846 ] } },
{ "type": "Feature", "properties": { "AMIE": "08H02247", "NOM_INSTIT": "UNIDAD EDUCATIVA \"CARLOS ANDRADE MARIN\"", "TE_fin": "MATRIZ", "ESTADO_IE_": "REGULAR", "Servicio_E": "Sí", "Servicio_A": "Sí", "Longitud": -79.40682, "Latitud": 0.041963 }, "geometry": { "type": "Point", "coordinates": [ -79.40682002, 0.041963198 ] } },
{ "type": "Feature", "properties": { "AMIE": "08H02247", "NOM_INSTIT": "UNIDAD EDUCATIVA \"CARLOS ANDRADE MARIN\"", "TE_fin": "ESTABLECIMIENTO", "ESTADO_IE_": "REGULAR", "Servicio_E": "Sí", "Servicio_A": "Sí", "Longitud": -79.40682, "Latitud": 0.041963 }, "geometry": { "type": "Point", "coordinates": [ -79.40682002, 0.041963198 ] } },
{ "type": "Feature", "properties": { "AMIE": "04H00217", "NOM_INSTIT": "UNIDAD EDUCATIVA “EL ÁNGEL”", "TE_fin": "ESTABLECIMIENTO", "ESTADO_IE_": "REGULAR", "Servicio_E": "Sí", "Servicio_A": "Sí", "Longitud": -77.943613, "Latitud": 0.62309 }, "geometry": { "type": "Point", "coordinates": [ -77.9436133, 0.623089523 ] } },
{ "type": "Feature", "properties": { "AMIE": "16B00029", "NOM_INSTIT": "CENTRO EDUCATIVO COMUNITARIO INTERCULTURAL BILINGÜE DE EDUCACIÓN BÁSICA YUTSUNTSA", "TE_fin": "MATRIZ", "ESTADO_IE_": "REGULAR", "Servicio_E": "No", "Servicio_A": "Sí", "Longitud": -76.454154, "Latitud": -2.351206 }, "geometry": { "type": "Point", "coordinates": [ -76.45415448, -2.3512063 ] } },
{ "type": "Feature", "properties": { "AMIE": "16H00478", "NOM_INSTIT": "CENTRO EDUCATIVO INTERCULTURAL BILINGUE DAIPADE", "TE_fin": "MATRIZ", "ESTADO_IE_": "REGULAR", "Servicio_E": "No", "Servicio_A": "No", "Longitud": -77.566618, "Latitud": -1.30189 }, "geometry": { "type": "Point", "coordinates": [ -77.56661812, -1.30189022 ] } },
{ "type": "Feature", "properties": { "AMIE": "16B00290", "NOM_INSTIT": "CENTRO EDUCATIVO COMUNITARIO INTERCULTURAL BILINGÜE DE EDUCACIÓN BÁSICA INIAK", "TE_fin": "MATRIZ", "ESTADO_IE_": "REGULAR", "Servicio_E": "No", "Servicio_A": "Sí", "Longitud": -76.562494, "Latitud": -2.321124 }, "geometry": { "type": "Point", "coordinates": [ -76.56249421, -2.321123663 ] } },
{ "type": "Feature", "properties": { "AMIE": "16B00197", "NOM_INSTIT": "UNIDAD EDUCATIVA INTERCULTURAL BILINGUE \"NUEVO SAN JOSÉ\"", "TE_fin": "MATRIZ", "ESTADO_IE_": "MALO", "Servicio_E": "No", "Servicio_A": "Sí", "Longitud": -76.940199, "Latitud": -1.392544 }, "geometry": { "type": "Point", "coordinates": [ -76.94019871, -1.392543992 ] } },
{ "type": "Feature", "properties": { "AMIE": "16H00188", "NOM_INSTIT": "CENTRO EDUCATIVO COMUNITARIO INTERCULTURAL BILINGUE LAGUNA VERDE", "TE_fin": "MATRIZ", "ESTADO_IE_": "REGULAR", "Servicio_E": "No", "Servicio_A": "Sí", "Longitud": -77.456422, "Latitud": -1.500487 }, "geometry": { "type": "Point", "coordinates": [ -77.45642209, -1.500486575 ] } },
{ "type": "Feature", "properties": { "AMIE": "16B00171", "NOM_INSTIT": "CENTRO EDUCATIVO COMUNITARIO INTERCULTURAL BILINGUE PIWIRI", "TE_fin": "MATRIZ", "ESTADO_IE_": "REGULAR", "Servicio_E": "No", "Servicio_A": "Sí", "Longitud": -77.325307, "Latitud": -1.505195 }, "geometry": { "type": "Point", "coordinates": [ -77.32530693, -1.505195346 ] } },
{ "type": "Feature", "properties": { "AMIE": "16B00060", "NOM_INSTIT": "CENTRO EDUCATIVO COMUNITARIO INTERCULTURAL BILINGÜE DE EDUCACIÓN BÁSICA WIRIRIMA", "TE_fin": "MATRIZ", "ESTADO_IE_": "MALO", "Servicio_E": "No", "Servicio_A": "Sí", "Longitud": -76.145992, "Latitud": -1.958512 }, "geometry": { "type": "Point", "coordinates": [ -76.14599186, -1.958512216 ] } },
{ "type": "Feature", "properties": { "AMIE": "16B00165", "NOM_INSTIT": "CENTRO EDUCATIVO COMUNITARIO INTERCULTURAL BILINGÜE DE EDUCACIÓN BÁSICA NAMPA KENTO", "TE_fin": "MATRIZ", "ESTADO_IE_": "MALO", "Servicio_E": "No", "Servicio_A": "No", "Longitud": -77.31932, "Latitud": -1.293899 }, "geometry": { "type": "Point", "coordinates": [ -77.31932027, -1.293899083 ] } },
{ "type": "Feature", "properties": { "AMIE": "16B00034", "NOM_INSTIT": "CENTRO EDUCATIVO COMUNITARIO INTERCULTURAL BILINGÜE DE EDUCACIÓN GENERAL BÁSICA TIINKIAS", "TE_fin": "MATRIZ", "ESTADO_IE_": "REGULAR", "Servicio_E": "No", "Servicio_A": "Sí", "Longitud": -76.636371, "Latitud": -2.468616 }, "geometry": { "type": "Point", "coordinates": [ -76.63637103, -2.468615926 ] } },
{ "type": "Feature", "properties": { "AMIE": "16B00193", "NOM_INSTIT": "CENTRO EDUCATIVO COMUNITARIO INTERCULTURAL BILINGÜE DE EDUCACIÓN BÁSICA REINO DE QUITO", "TE_fin": "MATRIZ", "ESTADO_IE_": "REGULAR", "Servicio_E": "No", "Servicio_A": "Sí", "Longitud": -77.456954, "Latitud": -1.32127 }, "geometry": { "type": "Point", "coordinates": [ -77.45695414, -1.321270067 ] } },
{ "type": "Feature", "properties": { "AMIE": "16B00233", "NOM_INSTIT": "CENTRO EDUCATIVO COMUNITARIO INTERCULTURAL BILINGÜE DE EDUCACIÓN BÁSICA HATUN PLAYA", "TE_fin": "MATRIZ", "ESTADO_IE_": "DETERIORO", "Servicio_E": "No", "Servicio_A": "Sí", "Longitud": -75.934659, "Latitud": -1.666095 }, "geometry": { "type": "Point", "coordinates": [ -75.9346588, -1.666094859 ] } },
{ "type": "Feature", "properties": { "AMIE": "16B00279", "NOM_INSTIT": "UNIDAD EDUCATIVA COMUNITARIA INTERCULTURAL BILINGÜE \"LORO KACHI\"", "TE_fin": "MATRIZ", "ESTADO_IE_": "REGULAR", "Servicio_E": "Sí", "Servicio_A": "Sí", "Longitud": -75.992076, "Latitud": -1.611142 }, "geometry": { "type": "Point", "coordinates": [ -75.99207649, -1.611142146 ] } },
{ "type": "Feature", "properties": { "AMIE": "16B00229", "NOM_INSTIT": "CENTRO EDUCATIVO COMUNITARIO INTERCULTURAL BILINGUE ILIPI", "TE_fin": "MATRIZ", "ESTADO_IE_": "MALO", "Servicio_E": "Sí", "Servicio_A": "Sí", "Longitud": -77.706709, "Latitud": -1.420052 }, "geometry": { "type": "Point", "coordinates": [ -77.70670939, -1.420051812 ] } },
{ "type": "Feature", "properties": { "AMIE": "16B00079", "NOM_INSTIT": "CENTRO EDUCATIVO COMUNITARIO INTERCULTURAL BILINGUE LIPUNO", "TE_fin": "MATRIZ", "ESTADO_IE_": "REGULAR", "Servicio_E": "Sí", "Servicio_A": "Sí", "Longitud": -77.358054, "Latitud": -1.516134 }, "geometry": { "type": "Point", "coordinates": [ -77.35805417, -1.516134021 ] } },
{ "type": "Feature", "properties": { "AMIE": "05B00074", "NOM_INSTIT": "CENTRO EDUCATIVO COMUNITARIO INTERCULTURAL BILINGÜE DE EDUCACIÓN BÁSICA FRAY TOMAS DE BERLANGA", "TE_fin": "MATRIZ", "ESTADO_IE_": "REGULAR", "Servicio_E": "Sí", "Servicio_A": "Sí", "Longitud": -78.829221, "Latitud": -0.818533 }, "geometry": { "type": "Point", "coordinates": [ -78.82922135, -0.818533412 ] } },
{ "type": "Feature", "properties": { "AMIE": "05H00536", "NOM_INSTIT": "ESCUELA DE EDUCACION BASICA OSCAR EFREN REYES", "TE_fin": "MATRIZ", "ESTADO_IE_": "REGULAR", "Servicio_E": "Sí", "Servicio_A": "Sí", "Longitud": -78.932848, "Latitud": -1.142441 }, "geometry": { "type": "Point", "coordinates": [ -78.93284844, -1.142441134 ] } },
{ "type": "Feature", "properties": { "AMIE": "15B00139", "NOM_INSTIT": "UNIDAD EDUCATIVA COMUNITARIA INTERCULTURAL BILINGÜE \"HUAMANI\"", "TE_fin": "MATRIZ", "ESTADO_IE_": "REGULAR", "Servicio_E": "Sí", "Servicio_A": "Sí", "Longitud": -77.61325, "Latitud": -0.721833 }, "geometry": { "type": "Point", "coordinates": [ -77.61325, -0.721833332 ] } },
{ "type": "Feature", "properties": { "AMIE": "03H00555", "NOM_INSTIT": "UNIDAD EDUCATIVA LUIS FELIPE BORJA", "TE_fin": "ESTABLECIMIENTO", "ESTADO_IE_": "MALO", "Servicio_E": "Sí", "Servicio_A": "Sí", "Longitud": -79.294491, "Latitud": -2.394385 }, "geometry": { "type": "Point", "coordinates": [ -79.29449069, -2.394385209 ] } },
{ "type": "Feature", "properties": { "AMIE": "08H01096", "NOM_INSTIT": "ESCUELA DE EDUCACIÓN BÁSICA ELOY ALFARO", "TE_fin": "MATRIZ", "ESTADO_IE_": "S/I", "Servicio_E": "No", "Servicio_A": "Sí", "Longitud": -79.506175, "Latitud": 0.082259 }, "geometry": { "type": "Point", "coordinates": [ -79.50617485, 0.082258972 ] } },
{ "type": "Feature", "properties": { "AMIE": "03B00050", "NOM_INSTIT": "CENTRO EDUCATIVO COMUNITARIO INTERCULTURAL BILINGÜE DE EDUCACIÓN BÁSICA SAN JOSÉ DE CULEBRILLAS", "TE_fin": "MATRIZ", "ESTADO_IE_": "REGULAR", "Servicio_E": "Sí", "Servicio_A": "Sí", "Longitud": -78.868702, "Latitud": -2.492648 }, "geometry": { "type": "Point", "coordinates": [ -78.86870226, -2.492647888 ] } },
{ "type": "Feature", "properties": { "AMIE": "13H03593", "NOM_INSTIT": "ESCUELA DE EDUCACION BASICA 25 DE JUNIO", "TE_fin": "MATRIZ", "ESTADO_IE_": "REGULAR", "Servicio_E": "Sí", "Servicio_A": "Sí", "Longitud": -80.348821, "Latitud": -0.846431 }, "geometry": { "type": "Point", "coordinates": [ -80.3488207, -0.846431233 ] } },
{ "type": "Feature", "properties": { "AMIE": "13H02061", "NOM_INSTIT": "ESCUELA DE EDUCACIÓN BÁSICA MOISÉS SÁNCHEZ GUARANDA", "TE_fin": "MATRIZ", "ESTADO_IE_": "REGULAR", "Servicio_E": "Sí", "Servicio_A": "Sí", "Longitud": -80.579444, "Latitud": -1.780194 }, "geometry": { "type": "Point", "coordinates": [ -80.57944444, -1.780194447 ] } },
{ "type": "Feature", "properties": { "AMIE": "01H00655", "NOM_INSTIT": "UNIDAD EDUCATIVA \"ABDÓN CALDERÓN\"", "TE_fin": "ESTABLECIMIENTO", "ESTADO_IE_": "REGULAR", "Servicio_E": "Sí", "Servicio_A": "Sí", "Longitud": -79.604716, "Latitud": -2.902541 }, "geometry": { "type": "Point", "coordinates": [ -79.60471643, -2.902541407 ] } },
{ "type": "Feature", "properties": { "AMIE": "14B00341", "NOM_INSTIT": "CENTRO EDUCATIVO COMUNITARIO INTERCULTURAL BILINGÜE DE EDUCACIÓN BÁSICA NAYAIMP", "TE_fin": "MATRIZ", "ESTADO_IE_": "S/I", "Servicio_E": "No", "Servicio_A": "Sí", "Longitud": -77.528722, "Latitud": -2.523564 }, "geometry": { "type": "Point", "coordinates": [ -77.52872224, -2.523564051 ] } },
{ "type": "Feature", "properties": { "AMIE": "21H00594", "NOM_INSTIT": "UNIDAD EDUCATIVA \"JUAN MONTALVO\"", "TE_fin": "MATRIZ", "ESTADO_IE_": "REGULAR", "Servicio_E": "Sí", "Servicio_A": "Sí", "Longitud": -76.539975, "Latitud": -0.303588 }, "geometry": { "type": "Point", "coordinates": [ -76.53997497, -0.303588022 ] } },
{ "type": "Feature", "properties": { "AMIE": "23H00834", "NOM_INSTIT": "UNIDAD EDUCATIVA “JOAQUIN GALLEGOS LARA”", "TE_fin": "MATRIZ", "ESTADO_IE_": "REGULAR", "Servicio_E": "Sí", "Servicio_A": "Sí", "Longitud": -79.495357, "Latitud": -0.03991 }, "geometry": { "type": "Point", "coordinates": [ -79.49535683, -0.039910308 ] } },
{ "type": "Feature", "properties": { "AMIE": "21H00621", "NOM_INSTIT": "UNIDAD EDUCATIVA CIUDAD DE PORTOVIEJO", "TE_fin": "MATRIZ", "ESTADO_IE_": "REGULAR", "Servicio_E": "Sí", "Servicio_A": "Sí", "Longitud": -76.784722, "Latitud": -0.184361 }, "geometry": { "type": "Point", "coordinates": [ -76.7847222, -0.184361122 ] } },
{ "type": "Feature", "properties": { "AMIE": "21H00488", "NOM_INSTIT": "UNIDAD EDUCATIVA “26 DE OCTUBRE”", "TE_fin": "MATRIZ", "ESTADO_IE_": "REGULAR", "Servicio_E": "Sí", "Servicio_A": "Sí", "Longitud": -76.745789, "Latitud": -0.254535 }, "geometry": { "type": "Point", "coordinates": [ -76.7457892, -0.254534799 ] } },
{ "type": "Feature", "properties": { "AMIE": "18H00231", "NOM_INSTIT": "UNIDAD EDUCATIVA \"JUAN BENIGNO VELA\"", "TE_fin": "MATRIZ", "ESTADO_IE_": "REGULAR", "Servicio_E": "Sí", "Servicio_A": "Sí", "Longitud": -78.69094, "Latitud": -1.298691 }, "geometry": { "type": "Point", "coordinates": [ -78.69093969, -1.298690842 ] } },
{ "type": "Feature", "properties": { "AMIE": "21H00332", "NOM_INSTIT": "UNIDAD EDUCATIVA JAMBELI", "TE_fin": "MATRIZ", "ESTADO_IE_": "REGULAR", "Servicio_E": "Sí", "Servicio_A": "Sí", "Longitud": -77.074343, "Latitud": 0.087511 }, "geometry": { "type": "Point", "coordinates": [ -77.0743434, 0.08751121 ] } },
{ "type": "Feature", "properties": { "AMIE": "21H00132", "NOM_INSTIT": "UNIDAD EDUCATIVA CONSEJO PROVINCIAL DE NAPO", "TE_fin": "MATRIZ", "ESTADO_IE_": "REGULAR", "Servicio_E": "Sí", "Servicio_A": "Sí", "Longitud": -76.893852, "Latitud": 0.086019 }, "geometry": { "type": "Point", "coordinates": [ -76.89385161, 0.086018841 ] } },
{ "type": "Feature", "properties": { "AMIE": "18H00097", "NOM_INSTIT": "UNIDAD EDUCATIVA \"HISPANO AMÉRICA\"", "TE_fin": "MATRIZ", "ESTADO_IE_": "REGULAR", "Servicio_E": "Sí", "Servicio_A": "Sí", "Longitud": -78.621814, "Latitud": -1.244097 }, "geometry": { "type": "Point", "coordinates": [ -78.62181361, -1.244097472 ] } },
{ "type": "Feature", "properties": { "AMIE": "18B00001", "NOM_INSTIT": "UNIDAD EDUCATIVA INTERCULTURAL BILINGÜE PROVINCIA DE CHIMBORAZO", "TE_fin": "MATRIZ", "ESTADO_IE_": "REGULAR", "Servicio_E": "Sí", "Servicio_A": "Sí", "Longitud": -78.618984, "Latitud": -1.262403 }, "geometry": { "type": "Point", "coordinates": [ -78.6189843, -1.262403431 ] } },
{ "type": "Feature", "properties": { "AMIE": "18H00149", "NOM_INSTIT": "UNIDAD EDUCATIVA \"GENERAL CÓRDOVA\"", "TE_fin": "MATRIZ", "ESTADO_IE_": "REGULAR", "Servicio_E": "Sí", "Servicio_A": "Sí", "Longitud": -78.611857, "Latitud": -1.27901 }, "geometry": { "type": "Point", "coordinates": [ -78.61185746, -1.279009587 ] } },
{ "type": "Feature", "properties": { "AMIE": "18H00147", "NOM_INSTIT": "UNIDAD EDUCATIVA \"LUIS FELIPE BORJA\"", "TE_fin": "MATRIZ", "ESTADO_IE_": "REGULAR", "Servicio_E": "Sí", "Servicio_A": "Sí", "Longitud": -78.595883, "Latitud": -1.260216 }, "geometry": { "type": "Point", "coordinates": [ -78.5958831, -1.26021604 ] } },
{ "type": "Feature", "properties": { "AMIE": "17H02044", "NOM_INSTIT": "UNIDAD EDUCATIVA “EQUINOCCIO SAN ANTONIO”", "TE_fin": "MATRIZ", "ESTADO_IE_": "BUENO", "Servicio_E": "Sí", "Servicio_A": "Sí", "Longitud": -78.458436, "Latitud": 0.003135 }, "geometry": { "type": "Point", "coordinates": [ -78.45843563, 0.003135405 ] } },
{ "type": "Feature", "properties": { "AMIE": "14H00463", "NOM_INSTIT": "UNIDAD EDUCATIVA REAL AUDIENCIA DE QUITO", "TE_fin": "MATRIZ", "ESTADO_IE_": "REGULAR", "Servicio_E": "Sí", "Servicio_A": "Sí", "Longitud": -77.664139, "Latitud": -2.878722 }, "geometry": { "type": "Point", "coordinates": [ -77.66413893, -2.87872218 ] } },
{ "type": "Feature", "properties": { "AMIE": "13H04307", "NOM_INSTIT": "ESCUELA DE EDUCACIÓN BÁSICA \"12 DE OCTUBRE\"", "TE_fin": "MATRIZ", "ESTADO_IE_": "REGULAR", "Servicio_E": "Sí", "Servicio_A": "Sí", "Longitud": -80.408193, "Latitud": -0.590242 }, "geometry": { "type": "Point", "coordinates": [ -80.40819309, -0.590241981 ] } },
{ "type": "Feature", "properties": { "AMIE": "10H00509", "NOM_INSTIT": "UNIDAD EDUCATIVA “PIMAMPIRO”", "TE_fin": "MATRIZ", "ESTADO_IE_": "REGULAR", "Servicio_E": "Sí", "Servicio_A": "Sí", "Longitud": -77.942661, "Latitud": 0.391124 }, "geometry": { "type": "Point", "coordinates": [ -77.9426614, 0.391124047 ] } },
{ "type": "Feature", "properties": { "AMIE": "10H00443", "NOM_INSTIT": "UNIDAD EDUCATIVA \"ISAAC JESUS BARRERA\"", "TE_fin": "MATRIZ", "ESTADO_IE_": "REGULAR", "Servicio_E": "Sí", "Servicio_A": "Sí", "Longitud": -78.26236, "Latitud": 0.221754 }, "geometry": { "type": "Point", "coordinates": [ -78.26236045, 0.221753952 ] } },
{ "type": "Feature", "properties": { "AMIE": "10H00469", "NOM_INSTIT": "UNIDAD EDUCATIVA “JUAN MONTALVO”", "TE_fin": "MATRIZ", "ESTADO_IE_": "MALO", "Servicio_E": "Sí", "Servicio_A": "Sí", "Longitud": -78.20371, "Latitud": 0.180784 }, "geometry": { "type": "Point", "coordinates": [ -78.2037096, 0.180783582 ] } },
{ "type": "Feature", "properties": { "AMIE": "10H00411", "NOM_INSTIT": "UNIDAD EDUCATIVA \"OTAVALO\"", "TE_fin": "MATRIZ", "ESTADO_IE_": "REGULAR", "Servicio_E": "Sí", "Servicio_A": "Sí", "Longitud": -78.254765, "Latitud": 0.237498 }, "geometry": { "type": "Point", "coordinates": [ -78.25476542, 0.237497727 ] } },
{ "type": "Feature", "properties": { "AMIE": "10H00429", "NOM_INSTIT": "ESCUELA DE EDUCACION BASICA GUILLERMO GARZON UBIDIA", "TE_fin": "MATRIZ", "ESTADO_IE_": "REGULAR", "Servicio_E": "Sí", "Servicio_A": "Sí", "Longitud": -78.275055, "Latitud": 0.221362 }, "geometry": { "type": "Point", "coordinates": [ -78.27505541, 0.221361666 ] } },
{ "type": "Feature", "properties": { "AMIE": "10H00153", "NOM_INSTIT": "UNIDAD EDUCATIVA “PRIORATO”", "TE_fin": "MATRIZ", "ESTADO_IE_": "REGULAR", "Servicio_E": "Sí", "Servicio_A": "Sí", "Longitud": -78.104604, "Latitud": 0.380659 }, "geometry": { "type": "Point", "coordinates": [ -78.1046036, 0.38065896 ] } },
{ "type": "Feature", "properties": { "AMIE": "10H00226", "NOM_INSTIT": "UNIDAD EDUCATIVA “VÍCTOR MIDEROS ALMEIDA”", "TE_fin": "MATRIZ", "ESTADO_IE_": "MALO", "Servicio_E": "Sí", "Servicio_A": "Sí", "Longitud": -78.170357, "Latitud": 0.334195 }, "geometry": { "type": "Point", "coordinates": [ -78.17035724, 0.334195095 ] } },
{ "type": "Feature", "properties": { "AMIE": "10H00262", "NOM_INSTIT": "UNIDAD EDUCATIVA “IMBAYA”", "TE_fin": "MATRIZ", "ESTADO_IE_": "REGULAR", "Servicio_E": "Sí", "Servicio_A": "Sí", "Longitud": -78.150026, "Latitud": 0.366737 }, "geometry": { "type": "Point", "coordinates": [ -78.15002621, 0.366737009 ] } },
{ "type": "Feature", "properties": { "AMIE": "10H00229", "NOM_INSTIT": "UNIDAD EDUCATIVA \"DANIEL REYES\"", "TE_fin": "MATRIZ", "ESTADO_IE_": "REGULAR", "Servicio_E": "Sí", "Servicio_A": "Sí", "Longitud": -78.170303, "Latitud": 0.336418 }, "geometry": { "type": "Point", "coordinates": [ -78.17030275, 0.336417986 ] } },
{ "type": "Feature", "properties": { "AMIE": "10B00105", "NOM_INSTIT": "UNIDAD EDUCATIVA COMUNITARIA INTERCULTURAL   BILINGÜE \"SAN JUAN DE ILUMAN\"", "TE_fin": "MATRIZ", "ESTADO_IE_": "MALO", "Servicio_E": "Sí", "Servicio_A": "Sí", "Longitud": -78.234992, "Latitud": 0.272755 }, "geometry": { "type": "Point", "coordinates": [ -78.23499193, 0.272754991 ] } },
{ "type": "Feature", "properties": { "AMIE": "10B00102", "NOM_INSTIT": "UNIDAD EDUCATIVA COMUNITARIA INTERCULTURAL BILINGÜE “SAN AGUSTÍN DE CAJAS”", "TE_fin": "MATRIZ", "ESTADO_IE_": "REGULAR", "Servicio_E": "Sí", "Servicio_A": "Sí", "Longitud": -78.198409, "Latitud": 0.154225 }, "geometry": { "type": "Point", "coordinates": [ -78.19840856, 0.154224701 ] } },
{ "type": "Feature", "properties": { "AMIE": "10H00090", "NOM_INSTIT": "UNIDAD EDUCATIVA \"PRESIDENTE VELASCO IBARRA\"", "TE_fin": "MATRIZ", "ESTADO_IE_": "REGULAR", "Servicio_E": "Sí", "Servicio_A": "Sí", "Longitud": -78.12015, "Latitud": 0.354448 }, "geometry": { "type": "Point", "coordinates": [ -78.12015023, 0.354447712 ] } },
{ "type": "Feature", "properties": { "AMIE": "10H00079", "NOM_INSTIT": "UNIDAD EDUCATIVA \"CIUDAD DE IBARRA\"", "TE_fin": "MATRIZ", "ESTADO_IE_": "MALO", "Servicio_E": "Sí", "Servicio_A": "Sí", "Longitud": -78.130375, "Latitud": 0.354382 }, "geometry": { "type": "Point", "coordinates": [ -78.13037482, 0.354382327 ] } },
{ "type": "Feature", "properties": { "AMIE": "10H00007", "NOM_INSTIT": "UNIDAD EDUCATIVA CARANQUI", "TE_fin": "MATRIZ", "ESTADO_IE_": "MALO", "Servicio_E": "Sí", "Servicio_A": "Sí", "Longitud": -78.123186, "Latitud": 0.318803 }, "geometry": { "type": "Point", "coordinates": [ -78.12318623, 0.318803026 ] } },
{ "type": "Feature", "properties": { "AMIE": "10H00057", "NOM_INSTIT": "UNIDAD EDUCATIVA “REPÚBLICA DE MÉXICO”", "TE_fin": "MATRIZ", "ESTADO_IE_": "REGULAR", "Servicio_E": "Sí", "Servicio_A": "Sí", "Longitud": -78.054083, "Latitud": 0.356189 }, "geometry": { "type": "Point", "coordinates": [ -78.05408301, 0.356188654 ] } },
{ "type": "Feature", "properties": { "AMIE": "10H00132", "NOM_INSTIT": "UNIDAD EDUCATIVA \"CAPITAN CRISTOBAL DE TROYA\"", "TE_fin": "MATRIZ", "ESTADO_IE_": "REGULAR", "Servicio_E": "Sí", "Servicio_A": "Sí", "Longitud": -78.142197, "Latitud": 0.346096 }, "geometry": { "type": "Point", "coordinates": [ -78.14219678, 0.346096308 ] } },
{ "type": "Feature", "properties": { "AMIE": "10B00089", "NOM_INSTIT": "UNIDAD EDUCATIVA COMUNITARIA INTERCULTURAL BILINGÜE “MANUEL J CALLE”", "TE_fin": "MATRIZ", "ESTADO_IE_": "REGULAR", "Servicio_E": "Sí", "Servicio_A": "Sí", "Longitud": -78.250278, "Latitud": 0.21025 }, "geometry": { "type": "Point", "coordinates": [ -78.2502778, 0.210249986 ] } },
{ "type": "Feature", "properties": { "AMIE": "08H02255", "NOM_INSTIT": "UNIDAD EDUCATIVA “JORGE CHIRIBOGA GUERRERO”", "TE_fin": "MATRIZ", "ESTADO_IE_": "REGULAR", "Servicio_E": "Sí", "Servicio_A": "Sí", "Longitud": -79.377588, "Latitud": 0.012304 }, "geometry": { "type": "Point", "coordinates": [ -79.3775875, 0.012304445 ] } },
{ "type": "Feature", "properties": { "AMIE": "10B00052", "NOM_INSTIT": "UNIDAD EDUCATIVA COMUNITARIA INTERCULTURAL BILINGUE \"PRESBITERO AMABLE HERRERA\"", "TE_fin": "MATRIZ", "ESTADO_IE_": "REGULAR", "Servicio_E": "Sí", "Servicio_A": "Sí", "Longitud": -78.221736, "Latitud": 0.221162 }, "geometry": { "type": "Point", "coordinates": [ -78.22173573, 0.22116193 ] } },
{ "type": "Feature", "properties": { "AMIE": "10B00077", "NOM_INSTIT": "UNIDAD EDUCATIVA COMUNITARIA INTERCULTURAL BILINGÜE “MIGUEL EGAS CABEZAS”", "TE_fin": "MATRIZ", "ESTADO_IE_": "REGULAR", "Servicio_E": "Sí", "Servicio_A": "Sí", "Longitud": -78.234105, "Latitud": 0.252619 }, "geometry": { "type": "Point", "coordinates": [ -78.23410519, 0.252618666 ] } },
{ "type": "Feature", "properties": { "AMIE": "08H01428", "NOM_INSTIT": "UNIDAD EDUCATIVA RAMÓN ESTUPIÑÁN", "TE_fin": "MATRIZ", "ESTADO_IE_": "REGULAR", "Servicio_E": "Sí", "Servicio_A": "Sí", "Longitud": -79.370536, "Latitud": 1.065031 }, "geometry": { "type": "Point", "coordinates": [ -79.3705362, 1.06503106 ] } },
{ "type": "Feature", "properties": { "AMIE": "08H00979", "NOM_INSTIT": "UNIDAD EDUCATIVA \"GABRIELA MISTRAL\"", "TE_fin": "MATRIZ", "ESTADO_IE_": "MALO", "Servicio_E": "Sí", "Servicio_A": "Sí", "Longitud": -79.198453, "Latitud": 0.417859 }, "geometry": { "type": "Point", "coordinates": [ -79.19845335, 0.417859213 ] } },
{ "type": "Feature", "properties": { "AMIE": "08H01182", "NOM_INSTIT": "UNIDAD EDUCATIVA \"LA CONCORDIA\"", "TE_fin": "MATRIZ", "ESTADO_IE_": "REGULAR", "Servicio_E": "Sí", "Servicio_A": "Sí", "Longitud": -79.394888, "Latitud": 0.001239 }, "geometry": { "type": "Point", "coordinates": [ -79.39488812, 0.001239173 ] } },
{ "type": "Feature", "properties": { "AMIE": "08H00760", "NOM_INSTIT": "UNIDAD EDUCATIVA “ALEJANDRO OTOYA BRIONES”", "TE_fin": "MATRIZ", "ESTADO_IE_": "REGULAR", "Servicio_E": "Sí", "Servicio_A": "Sí", "Longitud": -79.462115, "Latitud": 0.329574 }, "geometry": { "type": "Point", "coordinates": [ -79.46211476, 0.329573568 ] } },
{ "type": "Feature", "properties": { "AMIE": "08H01144", "NOM_INSTIT": "UNIDAD EDUCATIVA \"DR ANDRES F CÓRDOVA”", "TE_fin": "MATRIZ", "ESTADO_IE_": "MALO", "Servicio_E": "Sí", "Servicio_A": "Sí", "Longitud": -79.383653, "Latitud": 0.018359 }, "geometry": { "type": "Point", "coordinates": [ -79.38365269, 0.01835869 ] } },
{ "type": "Feature", "properties": { "AMIE": "08H00485", "NOM_INSTIT": "UNIDAD EDUCATIVA LA TOLA", "TE_fin": "MATRIZ", "ESTADO_IE_": "REGULAR", "Servicio_E": "Sí", "Servicio_A": "Sí", "Longitud": -79.045277, "Latitud": 1.210308 }, "geometry": { "type": "Point", "coordinates": [ -79.04527674, 1.21030808 ] } },
{ "type": "Feature", "properties": { "AMIE": "06H00987", "NOM_INSTIT": "UNIDAD EDUCATIVA \"DR EMILIO UZCATEGUI\"", "TE_fin": "MATRIZ", "ESTADO_IE_": "REGULAR", "Servicio_E": "Sí", "Servicio_A": "Sí", "Longitud": -78.642452, "Latitud": -1.909564 }, "geometry": { "type": "Point", "coordinates": [ -78.6424523, -1.909564181 ] } },
{ "type": "Feature", "properties": { "AMIE": "08H00489", "NOM_INSTIT": "UNIDAD EDUCATIVA DR. ANIBAL DIAZ BARREIRO", "TE_fin": "MATRIZ", "ESTADO_IE_": "REGULAR", "Servicio_E": "Sí", "Servicio_A": "Sí", "Longitud": -79.160476, "Latitud": 1.097655 }, "geometry": { "type": "Point", "coordinates": [ -79.16047631, 1.097655278 ] } },
{ "type": "Feature", "properties": { "AMIE": "06H01216", "NOM_INSTIT": "UNIDAD EDUCATIVA \"DR. GONZALO OLEAS ZAMBRANO\"", "TE_fin": "MATRIZ", "ESTADO_IE_": "REGULAR", "Servicio_E": "Sí", "Servicio_A": "Sí", "Longitud": -78.979006, "Latitud": -1.938821 }, "geometry": { "type": "Point", "coordinates": [ -78.97900582, -1.93882122 ] } },
{ "type": "Feature", "properties": { "AMIE": "06H01341", "NOM_INSTIT": "UNIDAD EDUCATIVA SULTANA DE LOS ANDES", "TE_fin": "MATRIZ", "ESTADO_IE_": "REGULAR", "Servicio_E": "Sí", "Servicio_A": "Sí", "Longitud": -79.13552, "Latitud": -2.205373 }, "geometry": { "type": "Point", "coordinates": [ -79.13552033, -2.205372538 ] } },
{ "type": "Feature", "properties": { "AMIE": "08H00300", "NOM_INSTIT": "UNIDAD EDUCATIVA SAN MATEO", "TE_fin": "MATRIZ", "ESTADO_IE_": "MALO", "Servicio_E": "Sí", "Servicio_A": "Sí", "Longitud": -79.63062, "Latitud": 0.889382 }, "geometry": { "type": "Point", "coordinates": [ -79.63061975, 0.889381994 ] } },
{ "type": "Feature", "properties": { "AMIE": "06B00389", "NOM_INSTIT": "UNIDAD EDUCATIVA COMUNITARIA INTERCULTURAL BILINGÛE BATALLA DE TIOCAJAS", "TE_fin": "MATRIZ", "ESTADO_IE_": "REGULAR", "Servicio_E": "Sí", "Servicio_A": "Sí", "Longitud": -78.75256, "Latitud": -1.954453 }, "geometry": { "type": "Point", "coordinates": [ -78.75256029, -1.954452898 ] } },
{ "type": "Feature", "properties": { "AMIE": "06H00032", "NOM_INSTIT": "UNIDAD EDUCATIVA \"CAPITÁN EDMUNDO CHIRIBOGA\"", "TE_fin": "MATRIZ", "ESTADO_IE_": "REGULAR", "Servicio_E": "Sí", "Servicio_A": "Sí", "Longitud": -78.658727, "Latitud": -1.677867 }, "geometry": { "type": "Point", "coordinates": [ -78.65872744, -1.677867201 ] } },
{ "type": "Feature", "properties": { "AMIE": "06H00687", "NOM_INSTIT": "UNIDAD EDUCATIVA “15 DE AGOSTO”", "TE_fin": "MATRIZ", "ESTADO_IE_": "REGULAR", "Servicio_E": "Sí", "Servicio_A": "Sí", "Longitud": -78.740124, "Latitud": -1.669382 }, "geometry": { "type": "Point", "coordinates": [ -78.74012426, -1.669381999 ] } },
{ "type": "Feature", "properties": { "AMIE": "06H00013", "NOM_INSTIT": "ESCUELA DE EDUCACIÓN BÁSICA \"GRAL. JUAN LAVALLE\"", "TE_fin": "MATRIZ", "ESTADO_IE_": "REGULAR", "Servicio_E": "Sí", "Servicio_A": "Sí", "Longitud": -78.672342, "Latitud": -1.643496 }, "geometry": { "type": "Point", "coordinates": [ -78.67234172, -1.643496476 ] } },
{ "type": "Feature", "properties": { "AMIE": "06H00010", "NOM_INSTIT": "ESCUELA DE EDUCACIÓN BÁSICA \"DR. LEÓNIDAS GARCÍA ORTIZ\"", "TE_fin": "MATRIZ", "ESTADO_IE_": "REGULAR", "Servicio_E": "Sí", "Servicio_A": "Sí", "Longitud": -78.656344, "Latitud": -1.676524 }, "geometry": { "type": "Point", "coordinates": [ -78.65634386, -1.676523661 ] } },
{ "type": "Feature", "properties": { "AMIE": "06B00235", "NOM_INSTIT": "UNIDAD EDUCATIVA COMUNITARIA INTERCULTURAL BILINGÜE \"GENERAL RUMIÑAHUI\"", "TE_fin": "MATRIZ", "ESTADO_IE_": "REGULAR", "Servicio_E": "Sí", "Servicio_A": "Sí", "Longitud": -78.777001, "Latitud": -1.752945 }, "geometry": { "type": "Point", "coordinates": [ -78.77700063, -1.752945315 ] } },
{ "type": "Feature", "properties": { "AMIE": "05H00423", "NOM_INSTIT": "UNIDAD EDUCATIVA GONZALO PIZARRO", "TE_fin": "MATRIZ", "ESTADO_IE_": "BUENO", "Servicio_E": "Sí", "Servicio_A": "Sí", "Longitud": -79.027329, "Latitud": -1.14419 }, "geometry": { "type": "Point", "coordinates": [ -79.02732942, -1.144189799 ] } },
{ "type": "Feature", "properties": { "AMIE": "05H00900", "NOM_INSTIT": "UNIDAD EDUCATIVA BELISARIO QUEVEDO", "TE_fin": "MATRIZ", "ESTADO_IE_": "REGULAR", "Servicio_E": "Sí", "Servicio_A": "Sí", "Longitud": -78.700439, "Latitud": -0.957986 }, "geometry": { "type": "Point", "coordinates": [ -78.70043916, -0.957985961 ] } },
{ "type": "Feature", "properties": { "AMIE": "05H00503", "NOM_INSTIT": "UNIDAD EDUCATIVA DELIA IBARRA DE VELASCO", "TE_fin": "MATRIZ", "ESTADO_IE_": "REGULAR", "Servicio_E": "Sí", "Servicio_A": "Sí", "Longitud": -78.699364, "Latitud": -0.9955 }, "geometry": { "type": "Point", "coordinates": [ -78.69936437, -0.995499507 ] } },
{ "type": "Feature", "properties": { "AMIE": "05H00470", "NOM_INSTIT": "UNIDAD EDUCATIVA \"PROVINCIA DE COTOPAXI\"", "TE_fin": "MATRIZ", "ESTADO_IE_": "REGULAR", "Servicio_E": "Sí", "Servicio_A": "Sí", "Longitud": -78.690563, "Latitud": -0.952564 }, "geometry": { "type": "Point", "coordinates": [ -78.69056259, -0.952563742 ] } },
{ "type": "Feature", "properties": { "AMIE": "05H00716", "NOM_INSTIT": "UNIDAD EDUCATIVA DEL MILENIO \"SIGCHOS\"", "TE_fin": "MATRIZ", "ESTADO_IE_": "REGULAR", "Servicio_E": "Sí", "Servicio_A": "Sí", "Longitud": -78.885673, "Latitud": -0.698724 }, "geometry": { "type": "Point", "coordinates": [ -78.88567333, -0.698724017 ] } },
{ "type": "Feature", "properties": { "AMIE": "05H00221", "NOM_INSTIT": "UNIDAD EDUCATIVA \"TOACASO\"", "TE_fin": "MATRIZ", "ESTADO_IE_": "BUENO", "Servicio_E": "Sí", "Servicio_A": "Sí", "Longitud": -78.683094, "Latitud": -0.75698 }, "geometry": { "type": "Point", "coordinates": [ -78.68309413, -0.756980075 ] } },
{ "type": "Feature", "properties": { "AMIE": "05H00201", "NOM_INSTIT": "UNIDAD EDUCATIVA \"MARCO AURELIO SUBÍA MARTÍNEZ - BATALLA DE PANUPALI\"", "TE_fin": "MATRIZ", "ESTADO_IE_": "REGULAR", "Servicio_E": "Sí", "Servicio_A": "Sí", "Longitud": -78.636835, "Latitud": -0.779057 }, "geometry": { "type": "Point", "coordinates": [ -78.63683508, -0.779056645 ] } },
{ "type": "Feature", "properties": { "AMIE": "05H00240", "NOM_INSTIT": "UNIDAD EDUCATIVA FEDERACIÓN DEPORTIVA DE COTOPAXI", "TE_fin": "MATRIZ", "ESTADO_IE_": "REGULAR", "Servicio_E": "Sí", "Servicio_A": "Sí", "Longitud": -79.219708, "Latitud": -0.931935 }, "geometry": { "type": "Point", "coordinates": [ -79.21970778, -0.931935169 ] } },
{ "type": "Feature", "properties": { "AMIE": "05H00008", "NOM_INSTIT": "UNIDAD EDUCATIVA ANA PÁEZ", "TE_fin": "MATRIZ", "ESTADO_IE_": "REGULAR", "Servicio_E": "Sí", "Servicio_A": "Sí", "Longitud": -78.627583, "Latitud": -0.931014 }, "geometry": { "type": "Point", "coordinates": [ -78.62758265, -0.931014012 ] } },
{ "type": "Feature", "properties": { "AMIE": "04H00191", "NOM_INSTIT": "UNIDAD EDUCATIVA SAN VICENTE", "TE_fin": "MATRIZ", "ESTADO_IE_": "REGULAR", "Servicio_E": "Sí", "Servicio_A": "Sí", "Longitud": -78.046111, "Latitud": 0.494583 }, "geometry": { "type": "Point", "coordinates": [ -78.04611114, 0.494583334 ] } },
{ "type": "Feature", "properties": { "AMIE": "03H00558", "NOM_INSTIT": "UNIDAD EDUCATIVA 6 DE AGOSTO", "TE_fin": "MATRIZ", "ESTADO_IE_": "REGULAR", "Servicio_E": "Sí", "Servicio_A": "Sí", "Longitud": -79.376028, "Latitud": -2.451194 }, "geometry": { "type": "Point", "coordinates": [ -79.3760278, -2.451194449 ] } },
{ "type": "Feature", "properties": { "AMIE": "04H00024", "NOM_INSTIT": "UNIDAD EDUCATIVA \"CRISTÓBAL COLÓN\"", "TE_fin": "MATRIZ", "ESTADO_IE_": "REGULAR", "Servicio_E": "Sí", "Servicio_A": "Sí", "Longitud": -77.715033, "Latitud": 0.810564 }, "geometry": { "type": "Point", "coordinates": [ -77.71503277, 0.81056405 ] } },
{ "type": "Feature", "properties": { "AMIE": "04H00020", "NOM_INSTIT": "UNIDAD EDUCATIVA TULCAN", "TE_fin": "MATRIZ", "ESTADO_IE_": "REGULAR", "Servicio_E": "Sí", "Servicio_A": "Sí", "Longitud": -77.716323, "Latitud": 0.815898 }, "geometry": { "type": "Point", "coordinates": [ -77.71632251, 0.815897531 ] } },
{ "type": "Feature", "properties": { "AMIE": "03H00530", "NOM_INSTIT": "UNIDAD EDUCATIVA MANUEL DE J. CALLE", "TE_fin": "MATRIZ", "ESTADO_IE_": "REGULAR", "Servicio_E": "Sí", "Servicio_A": "Sí", "Longitud": -79.397806, "Latitud": -2.358306 }, "geometry": { "type": "Point", "coordinates": [ -79.3978056, -2.358305563 ] } },
{ "type": "Feature", "properties": { "AMIE": "03H00285", "NOM_INSTIT": "ESCUELA DE EDUCACIÓN BÁSICA \"ISABEL DE SANTIAGO\"", "TE_fin": "MATRIZ", "ESTADO_IE_": "REGULAR", "Servicio_E": "Sí", "Servicio_A": "Sí", "Longitud": -78.932725, "Latitud": -2.536745 }, "geometry": { "type": "Point", "coordinates": [ -78.93272544, -2.53674519 ] } },
{ "type": "Feature", "properties": { "AMIE": "03H00499", "NOM_INSTIT": "UNIDAD EDUCATIVA VIRGILIO URGILES MIRANDA", "TE_fin": "MATRIZ", "ESTADO_IE_": "MALO", "Servicio_E": "Sí", "Servicio_A": "Sí", "Longitud": -79.294019, "Latitud": -2.469388 }, "geometry": { "type": "Point", "coordinates": [ -79.29401885, -2.469388318 ] } },
{ "type": "Feature", "properties": { "AMIE": "03H00106", "NOM_INSTIT": "UNIDAD EDUCATIVA GUAPAN", "TE_fin": "MATRIZ", "ESTADO_IE_": "MALO", "Servicio_E": "Sí", "Servicio_A": "Sí", "Longitud": -78.847596, "Latitud": -2.714723 }, "geometry": { "type": "Point", "coordinates": [ -78.84759588, -2.714723306 ] } },
{ "type": "Feature", "properties": { "AMIE": "03H00502", "NOM_INSTIT": "UNIDAD EDUCATIVA PRESIDENTE VELASCO", "TE_fin": "MATRIZ", "ESTADO_IE_": "REGULAR", "Servicio_E": "Sí", "Servicio_A": "Sí", "Longitud": -79.342369, "Latitud": -2.427457 }, "geometry": { "type": "Point", "coordinates": [ -79.34236855, -2.427456861 ] } },
{ "type": "Feature", "properties": { "AMIE": "01H01044", "NOM_INSTIT": "UNIDAD EDUCATIVA RÍO TOMEBAMBA", "TE_fin": "MATRIZ", "ESTADO_IE_": "REGULAR", "Servicio_E": "Sí", "Servicio_A": "Sí", "Longitud": -78.727944, "Latitud": -2.857444 }, "geometry": { "type": "Point", "coordinates": [ -78.72794447, -2.857444481 ] } },
{ "type": "Feature", "properties": { "AMIE": "21H00383", "NOM_INSTIT": "UNIDAD EDUCATIVA LUMBAQUI", "TE_fin": "MATRIZ", "ESTADO_IE_": "REGULAR", "Servicio_E": "Sí", "Servicio_A": "Sí", "Longitud": -77.323681, "Latitud": 0.048881 }, "geometry": { "type": "Point", "coordinates": [ -77.32368098, 0.048880681 ] } },
{ "type": "Feature", "properties": { "AMIE": "17H02737", "NOM_INSTIT": "CENTRO DE PRIMARIA POPULAR DE AUDICION Y LENGUAJE ENRIQUETA SANTILLAN", "TE_fin": "MATRIZ", "ESTADO_IE_": "S/I", "Servicio_E": "Sí", "Servicio_A": "Sí", "Longitud": -78.549458, "Latitud": -0.258316 }, "geometry": { "type": "Point", "coordinates": [ -78.54945753, -0.258316075 ] } },
{ "type": "Feature", "properties": { "AMIE": "15H00369", "NOM_INSTIT": "CENTRO EBJA BORJA", "TE_fin": "MATRIZ", "ESTADO_IE_": "S/I", "Servicio_E": "S/I", "Servicio_A": "S/I", "Longitud": -77.810443, "Latitud": -0.339819 }, "geometry": { "type": "Point", "coordinates": [ -77.810443, -0.339819204 ] } },
{ "type": "Feature", "properties": { "AMIE": "09H05771", "NOM_INSTIT": "ESCUELA DE EDUCACIÓN BÁSICA \"CIUDAD DE NAZARETH”", "TE_fin": "MATRIZ", "ESTADO_IE_": "REGULAR", "Servicio_E": "Sí", "Servicio_A": "Sí", "Longitud": -79.818898, "Latitud": -2.156332 }, "geometry": { "type": "Point", "coordinates": [ -79.81889752, -2.156331748 ] } },
{ "type": "Feature", "properties": { "AMIE": "21H00724", "NOM_INSTIT": "UNIDAD EDUCATIVA HUMBERTO FIERRO", "TE_fin": "MATRIZ", "ESTADO_IE_": "REGULAR", "Servicio_E": "Sí", "Servicio_A": "Sí", "Longitud": -77.116732, "Latitud": 0.085529 }, "geometry": { "type": "Point", "coordinates": [ -77.11673228, 0.085528767 ] } },
{ "type": "Feature", "properties": { "AMIE": "21H00713", "NOM_INSTIT": "UNIDAD EDUCATIVA SARAGURO", "TE_fin": "MATRIZ", "ESTADO_IE_": "MALO", "Servicio_E": "Sí", "Servicio_A": "Sí", "Longitud": -77.133309, "Latitud": 0.177791 }, "geometry": { "type": "Point", "coordinates": [ -77.13330914, 0.177791306 ] } },
{ "type": "Feature", "properties": { "AMIE": "21H00653", "NOM_INSTIT": "UNIDAD EDUCATIVA EL PLAYON", "TE_fin": "MATRIZ", "ESTADO_IE_": "REGULAR", "Servicio_E": "Sí", "Servicio_A": "Sí", "Longitud": -77.627184, "Latitud": 0.638 }, "geometry": { "type": "Point", "coordinates": [ -77.62718407, 0.637999593 ] } },
{ "type": "Feature", "properties": { "AMIE": "21H00679", "NOM_INSTIT": "UNIDAD EDUCATIVA CASCALES", "TE_fin": "MATRIZ", "ESTADO_IE_": "REGULAR", "Servicio_E": "Sí", "Servicio_A": "Sí", "Longitud": -77.211187, "Latitud": 0.078517 }, "geometry": { "type": "Point", "coordinates": [ -77.21118672, 0.07851704 ] } },
{ "type": "Feature", "properties": { "AMIE": "21H00643", "NOM_INSTIT": "UNIDAD EDUCATIVA SUCUMBIOS", "TE_fin": "MATRIZ", "ESTADO_IE_": "REGULAR", "Servicio_E": "Sí", "Servicio_A": "Sí", "Longitud": -77.547766, "Latitud": 0.474204 }, "geometry": { "type": "Point", "coordinates": [ -77.5477659, 0.474203933 ] } },
{ "type": "Feature", "properties": { "AMIE": "21H00671", "NOM_INSTIT": "UNIDAD EDUCATIVA LA MERCED", "TE_fin": "MATRIZ", "ESTADO_IE_": "MALO", "Servicio_E": "Sí", "Servicio_A": "Sí", "Longitud": -77.525062, "Latitud": 0.645744 }, "geometry": { "type": "Point", "coordinates": [ -77.52506164, 0.645744257 ] } },
{ "type": "Feature", "properties": { "AMIE": "18H00525", "NOM_INSTIT": "UNIDAD EDUCATIVA \"DR BENIGNO MALO\"", "TE_fin": "MATRIZ", "ESTADO_IE_": "BUENO", "Servicio_E": "Sí", "Servicio_A": "Sí", "Longitud": -78.539736, "Latitud": -1.248714 }, "geometry": { "type": "Point", "coordinates": [ -78.53973637, -1.248714231 ] } },
{ "type": "Feature", "properties": { "AMIE": "18H00424", "NOM_INSTIT": "UNIDAD EDUCATIVA MARISCAL ANTONIO JOSE DE SUCRE", "TE_fin": "MATRIZ", "ESTADO_IE_": "REGULAR", "Servicio_E": "Sí", "Servicio_A": "Sí", "Longitud": -78.493953, "Latitud": -1.261832 }, "geometry": { "type": "Point", "coordinates": [ -78.49395313, -1.26183183 ] } },
{ "type": "Feature", "properties": { "AMIE": "21B00113", "NOM_INSTIT": "UNIDAD EDUCATIVA COMUNITARIA INTERCULTURAL BILINGÜE AB. MARTHA BUCARAM DE ROLDOS", "TE_fin": "MATRIZ", "ESTADO_IE_": "REGULAR", "Servicio_E": "Sí", "Servicio_A": "Sí", "Longitud": -76.620518, "Latitud": -0.40393 }, "geometry": { "type": "Point", "coordinates": [ -76.62051845, -0.403929715 ] } },
{ "type": "Feature", "properties": { "AMIE": "18H00509", "NOM_INSTIT": "UNIDAD EDUCATIVA “MARIANO BENÍTEZ TORRES”", "TE_fin": "MATRIZ", "ESTADO_IE_": "REGULAR", "Servicio_E": "Sí", "Servicio_A": "Sí", "Longitud": -78.584176, "Latitud": -1.338525 }, "geometry": { "type": "Point", "coordinates": [ -78.58417581, -1.338525462 ] } },
{ "type": "Feature", "properties": { "AMIE": "18H00384", "NOM_INSTIT": "UNIDAD EDUCATIVA \"VICENTE ANDA AGUIRRE\"", "TE_fin": "MATRIZ", "ESTADO_IE_": "REGULAR", "Servicio_E": "Sí", "Servicio_A": "Sí", "Longitud": -78.653756, "Latitud": -1.420798 }, "geometry": { "type": "Point", "coordinates": [ -78.65375591, -1.420797659 ] } },
{ "type": "Feature", "properties": { "AMIE": "18H00367", "NOM_INSTIT": "UNIDAD EDUCATIVA \"PEDRO FERMÍN CEVALLOS\"", "TE_fin": "MATRIZ", "ESTADO_IE_": "REGULAR", "Servicio_E": "Sí", "Servicio_A": "Sí", "Longitud": -78.613803, "Latitud": -1.355326 }, "geometry": { "type": "Point", "coordinates": [ -78.61380342, -1.355325873 ] } },
{ "type": "Feature", "properties": { "AMIE": "17H02199", "NOM_INSTIT": "CENTRO DE EDUCACIÓN INICIAL “CARLOS CUEVA TAMARIZ”", "TE_fin": "MATRIZ", "ESTADO_IE_": "REGULAR", "Servicio_E": "Sí", "Servicio_A": "Sí", "Longitud": -78.141422, "Latitud": 0.042234 }, "geometry": { "type": "Point", "coordinates": [ -78.1414221, 0.04223417 ] } },
{ "type": "Feature", "properties": { "AMIE": "16H00190", "NOM_INSTIT": "UNIDAD EDUCATIVA INTERCULTURAL ROGERS MC CULLY", "TE_fin": "MATRIZ", "ESTADO_IE_": "MALO", "Servicio_E": "Sí", "Servicio_A": "Sí", "Longitud": -77.689538, "Latitud": -1.233876 }, "geometry": { "type": "Point", "coordinates": [ -77.68953771, -1.23387589 ] } },
{ "type": "Feature", "properties": { "AMIE": "14H00193", "NOM_INSTIT": "UNIDAD EDUCATIVA LIMÓN", "TE_fin": "MATRIZ", "ESTADO_IE_": "REGULAR", "Servicio_E": "Sí", "Servicio_A": "Sí", "Longitud": -78.439234, "Latitud": -2.972432 }, "geometry": { "type": "Point", "coordinates": [ -78.4392345, -2.972431806 ] } },
{ "type": "Feature", "properties": { "AMIE": "14H00006", "NOM_INSTIT": "ESCUELA DE EDUCACIÓN BÁSICA ELOY ALFARO", "TE_fin": "MATRIZ", "ESTADO_IE_": "REGULAR", "Servicio_E": "Sí", "Servicio_A": "Sí", "Longitud": -78.117607, "Latitud": -2.303655 }, "geometry": { "type": "Point", "coordinates": [ -78.1176074, -2.303655249 ] } },
{ "type": "Feature", "properties": { "AMIE": "14H00057", "NOM_INSTIT": "UNIDAD EDUCATIVA ÁNGEL NOGUERA VILLAREAL", "TE_fin": "MATRIZ", "ESTADO_IE_": "MALO", "Servicio_E": "Sí", "Servicio_A": "Sí", "Longitud": -78.097778, "Latitud": -2.301667 }, "geometry": { "type": "Point", "coordinates": [ -78.09777778, -2.301666682 ] } },
{ "type": "Feature", "properties": { "AMIE": "14H00277", "NOM_INSTIT": "UNIDAD EDUCATIVA 24 DE MAYO", "TE_fin": "MATRIZ", "ESTADO_IE_": "REGULAR", "Servicio_E": "Sí", "Servicio_A": "Sí", "Longitud": -78.319796, "Latitud": -2.717648 }, "geometry": { "type": "Point", "coordinates": [ -78.31979641, -2.71764831 ] } },
{ "type": "Feature", "properties": { "AMIE": "16H00067", "NOM_INSTIT": "UNIDAD EDUCATIVA PIO JARAMILLO ALVARADO", "TE_fin": "MATRIZ", "ESTADO_IE_": "REGULAR", "Servicio_E": "Sí", "Servicio_A": "Sí", "Longitud": -78.001835, "Latitud": -1.480877 }, "geometry": { "type": "Point", "coordinates": [ -78.00183525, -1.480876942 ] } },
{ "type": "Feature", "properties": { "AMIE": "10H00131", "NOM_INSTIT": "UNIDAD EDUCATIVA “VÍCTOR MANUEL GUZMÁN”", "TE_fin": "MATRIZ", "ESTADO_IE_": "REGULAR", "Servicio_E": "Sí", "Servicio_A": "Sí", "Longitud": -78.11534, "Latitud": 0.336535 }, "geometry": { "type": "Point", "coordinates": [ -78.11534004, 0.336535049 ] } },
{ "type": "Feature", "properties": { "AMIE": "10H00106", "NOM_INSTIT": "UNIDAD EDUCATIVA “VÍCTOR MANUEL PEÑAHERRERA”", "TE_fin": "MATRIZ", "ESTADO_IE_": "MALO", "Servicio_E": "Sí", "Servicio_A": "Sí", "Longitud": -78.109159, "Latitud": 0.342996 }, "geometry": { "type": "Point", "coordinates": [ -78.10915919, 0.342995643 ] } },
{ "type": "Feature", "properties": { "AMIE": "10H00120", "NOM_INSTIT": "UNIDAD EDUCATIVA \"IBARRA\"", "TE_fin": "MATRIZ", "ESTADO_IE_": "DETERIORO", "Servicio_E": "Sí", "Servicio_A": "Sí", "Longitud": -78.12587, "Latitud": 0.348215 }, "geometry": { "type": "Point", "coordinates": [ -78.12586954, 0.348214763 ] } },
{ "type": "Feature", "properties": { "AMIE": "10H00538", "NOM_INSTIT": "UNIDAD EDUCATIVA “URCUQUI”", "TE_fin": "MATRIZ", "ESTADO_IE_": "REGULAR", "Servicio_E": "Sí", "Servicio_A": "Sí", "Longitud": -78.193228, "Latitud": 0.418339 }, "geometry": { "type": "Point", "coordinates": [ -78.193228, 0.418339477 ] } },
{ "type": "Feature", "properties": { "AMIE": "10H00029", "NOM_INSTIT": "UNIDAD EDUCATIVA “YAHUARCOCHA”", "TE_fin": "MATRIZ", "ESTADO_IE_": "MALO", "Servicio_E": "Sí", "Servicio_A": "Sí", "Longitud": -78.12389, "Latitud": 0.371576 }, "geometry": { "type": "Point", "coordinates": [ -78.12388969, 0.371575518 ] } },
{ "type": "Feature", "properties": { "AMIE": "08H00989", "NOM_INSTIT": "ESCUELA DE EDUCACION GENERAL BASICA PROVINCIA DE ESMERALDAS", "TE_fin": "MATRIZ", "ESTADO_IE_": "REGULAR", "Servicio_E": "Sí", "Servicio_A": "Sí", "Longitud": -79.424283, "Latitud": 0.437289 }, "geometry": { "type": "Point", "coordinates": [ -79.42428327, 0.437289098 ] } },
{ "type": "Feature", "properties": { "AMIE": "10H00046", "NOM_INSTIT": "ESCUELA DE EDUCACIÓN BÁSICA “YAGUACHI”", "TE_fin": "MATRIZ", "ESTADO_IE_": "REGULAR", "Servicio_E": "Sí", "Servicio_A": "Sí", "Longitud": -78.110539, "Latitud": 0.359959 }, "geometry": { "type": "Point", "coordinates": [ -78.11053898, 0.359959112 ] } },
{ "type": "Feature", "properties": { "AMIE": "08H00187", "NOM_INSTIT": "UNIDAD EDUCATIVA DR. LUIS PRADO VITERI", "TE_fin": "MATRIZ", "ESTADO_IE_": "MALO", "Servicio_E": "Sí", "Servicio_A": "Sí", "Longitud": -79.655013, "Latitud": 0.983553 }, "geometry": { "type": "Point", "coordinates": [ -79.65501345, 0.98355314 ] } },
{ "type": "Feature", "properties": { "AMIE": "06H00044", "NOM_INSTIT": "UNIDAD EDUCATIVA \"ONCE DE NOVIEMBRE\"", "TE_fin": "MATRIZ", "ESTADO_IE_": "REGULAR", "Servicio_E": "Sí", "Servicio_A": "Sí", "Longitud": -78.652434, "Latitud": -1.673953 }, "geometry": { "type": "Point", "coordinates": [ -78.65243438, -1.673952964 ] } },
{ "type": "Feature", "properties": { "AMIE": "04H00421", "NOM_INSTIT": "UNIDAD EDUCATIVA MARISCAL SUCRE", "TE_fin": "MATRIZ", "ESTADO_IE_": "REGULAR", "Servicio_E": "Sí", "Servicio_A": "Sí", "Longitud": -77.731786, "Latitud": 0.593501 }, "geometry": { "type": "Point", "coordinates": [ -77.73178558, 0.593501035 ] } },
{ "type": "Feature", "properties": { "AMIE": "04H00330", "NOM_INSTIT": "UNIDAD EDUCATIVA ABDÓN CALDERÓN", "TE_fin": "MATRIZ", "ESTADO_IE_": "REGULAR", "Servicio_E": "Sí", "Servicio_A": "Sí", "Longitud": -77.83574, "Latitud": 0.600215 }, "geometry": { "type": "Point", "coordinates": [ -77.83573982, 0.600214976 ] } },
{ "type": "Feature", "properties": { "AMIE": "01H01512", "NOM_INSTIT": "UNIDAD EDUCATIVA LAS PALMAS", "TE_fin": "MATRIZ", "ESTADO_IE_": "REGULAR", "Servicio_E": "Sí", "Servicio_A": "Sí", "Longitud": -78.630292, "Latitud": -2.717192 }, "geometry": { "type": "Point", "coordinates": [ -78.63029179, -2.717191824 ] } },
{ "type": "Feature", "properties": { "AMIE": "01H01441", "NOM_INSTIT": "UNIDAD EDUCATIVA OÑA", "TE_fin": "MATRIZ", "ESTADO_IE_": "REGULAR", "Servicio_E": "Sí", "Servicio_A": "Sí", "Longitud": -79.152574, "Latitud": -3.46713 }, "geometry": { "type": "Point", "coordinates": [ -79.15257361, -3.467129865 ] } },
{ "type": "Feature", "properties": { "AMIE": "04H00181", "NOM_INSTIT": "MONTE OLIVO", "TE_fin": "MATRIZ", "ESTADO_IE_": "REGULAR", "Servicio_E": "Sí", "Servicio_A": "Sí", "Longitud": -77.860901, "Latitud": 0.390536 }, "geometry": { "type": "Point", "coordinates": [ -77.86090111, 0.390535807 ] } },
{ "type": "Feature", "properties": { "AMIE": "01H01527", "NOM_INSTIT": "ESCUELA DE EDUCACIÓN BÁSICA CIUDAD DE GUACHAPALA", "TE_fin": "MATRIZ", "ESTADO_IE_": "BUENO", "Servicio_E": "Sí", "Servicio_A": "Sí", "Longitud": -78.713057, "Latitud": -2.77196 }, "geometry": { "type": "Point", "coordinates": [ -78.71305668, -2.771960023 ] } },
{ "type": "Feature", "properties": { "AMIE": "01H01327", "NOM_INSTIT": "UNIDAD EDUCATIVA “SAN PEDRO DE SHAGLLI”", "TE_fin": "MATRIZ", "ESTADO_IE_": "REGULAR", "Servicio_E": "Sí", "Servicio_A": "Sí", "Longitud": -79.376861, "Latitud": -3.175293 }, "geometry": { "type": "Point", "coordinates": [ -79.37686059, -3.175293113 ] } },
{ "type": "Feature", "properties": { "AMIE": "04H00131", "NOM_INSTIT": "UNIDAD EDUCATIVA ECUADOR", "TE_fin": "MATRIZ", "ESTADO_IE_": "REGULAR", "Servicio_E": "Sí", "Servicio_A": "Sí", "Longitud": -78.188525, "Latitud": 0.93619 }, "geometry": { "type": "Point", "coordinates": [ -78.18852482, 0.936189656 ] } },
{ "type": "Feature", "properties": { "AMIE": "04H00197", "NOM_INSTIT": "CARLOS MONTUFAR", "TE_fin": "MATRIZ", "ESTADO_IE_": "REGULAR", "Servicio_E": "Sí", "Servicio_A": "Sí", "Longitud": -77.912882, "Latitud": 0.411407 }, "geometry": { "type": "Point", "coordinates": [ -77.91288189, 0.411406706 ] } },
{ "type": "Feature", "properties": { "AMIE": "04H00068", "NOM_INSTIT": "UNIDAD EDUCATIVA EL CARMELO", "TE_fin": "MATRIZ", "ESTADO_IE_": "REGULAR", "Servicio_E": "Sí", "Servicio_A": "Sí", "Longitud": -77.597169, "Latitud": 0.67216 }, "geometry": { "type": "Point", "coordinates": [ -77.59716895, 0.672159966 ] } },
{ "type": "Feature", "properties": { "AMIE": "01H01500", "NOM_INSTIT": "UNIDAD EDUCATIVA AMALUZA", "TE_fin": "MATRIZ", "ESTADO_IE_": "REGULAR", "Servicio_E": "Sí", "Servicio_A": "Sí", "Longitud": -78.559917, "Latitud": -2.614 }, "geometry": { "type": "Point", "coordinates": [ -78.55991667, -2.614000028 ] } },
{ "type": "Feature", "properties": { "AMIE": "01H00966", "NOM_INSTIT": "UNIDAD EDUCATIVA REMIGIO CRESPO TORAL", "TE_fin": "MATRIZ", "ESTADO_IE_": "REGULAR", "Servicio_E": "Sí", "Servicio_A": "Sí", "Longitud": -79.258056, "Latitud": -3.21 }, "geometry": { "type": "Point", "coordinates": [ -79.25805558, -3.20999996 ] } },
{ "type": "Feature", "properties": { "AMIE": "01H00942", "NOM_INSTIT": "UNIDAD EDUCATIVA CIUDAD DE GIRÓN", "TE_fin": "MATRIZ", "ESTADO_IE_": "REGULAR", "Servicio_E": "Sí", "Servicio_A": "Sí", "Longitud": -79.144009, "Latitud": -3.152372 }, "geometry": { "type": "Point", "coordinates": [ -79.14400886, -3.152371708 ] } },
{ "type": "Feature", "properties": { "AMIE": "01H01237", "NOM_INSTIT": "UNIDAD EDUCATIVA SARAYUNGA", "TE_fin": "MATRIZ", "ESTADO_IE_": "REGULAR", "Servicio_E": "Sí", "Servicio_A": "Sí", "Longitud": -79.58247, "Latitud": -3.316773 }, "geometry": { "type": "Point", "coordinates": [ -79.5824701, -3.316772509 ] } },
{ "type": "Feature", "properties": { "AMIE": "01H01187", "NOM_INSTIT": "UNIDAD EDUCATIVA SAN PABLO DE GUARAINAG", "TE_fin": "MATRIZ", "ESTADO_IE_": "REGULAR", "Servicio_E": "Sí", "Servicio_A": "Sí", "Longitud": -78.632861, "Latitud": -2.664861 }, "geometry": { "type": "Point", "coordinates": [ -78.6328611, -2.664861075 ] } },
{ "type": "Feature", "properties": { "AMIE": "13H05415", "NOM_INSTIT": "UNIDAD EDUCATIVA \"KERLLY ANNABEL TORRES CEDEÑO\"", "TE_fin": "MATRIZ", "ESTADO_IE_": "BUENO", "Servicio_E": "Sí", "Servicio_A": "Sí", "Longitud": -80.69689, "Latitud": -1.000408 }, "geometry": { "type": "Point", "coordinates": [ -80.6968905, -1.000407886 ] } },
{ "type": "Feature", "properties": { "AMIE": "13H04266", "NOM_INSTIT": "UNIDAD EDUCATIVA \"LUIS FELIPE CHÁVEZ # 76\"", "TE_fin": "MATRIZ", "ESTADO_IE_": "BUENO", "Servicio_E": "Sí", "Servicio_A": "Sí", "Longitud": -80.63578, "Latitud": -0.949484 }, "geometry": { "type": "Point", "coordinates": [ -80.63577959, -0.949484261 ] } },
{ "type": "Feature", "properties": { "AMIE": "13H02742", "NOM_INSTIT": "UNIDAD EDUCATIVA “DR. DANIEL ACOSTA ROSALES”", "TE_fin": "MATRIZ", "ESTADO_IE_": "REGULAR", "Servicio_E": "Sí", "Servicio_A": "Sí", "Longitud": -80.675765, "Latitud": -1.086962 }, "geometry": { "type": "Point", "coordinates": [ -80.67576484, -1.08696163 ] } },
{ "type": "Feature", "properties": { "AMIE": "13H05427", "NOM_INSTIT": "UNIDAD EDUCATIVA “DIANA ESTHER GUERRERO VARGAS”", "TE_fin": "MATRIZ", "ESTADO_IE_": "BUENO", "Servicio_E": "Sí", "Servicio_A": "Sí", "Longitud": -80.514403, "Latitud": -0.78736 }, "geometry": { "type": "Point", "coordinates": [ -80.51440274, -0.787359652 ] } },
{ "type": "Feature", "properties": { "AMIE": "16H00114", "NOM_INSTIT": "UNIDAD EDUCATIVA \"MUSHULLACTA\"", "TE_fin": "MATRIZ", "ESTADO_IE_": "REGULAR", "Servicio_E": "Sí", "Servicio_A": "Sí", "Longitud": -77.844887, "Latitud": -1.719178 }, "geometry": { "type": "Point", "coordinates": [ -77.84488714, -1.71917812 ] } },
{ "type": "Feature", "properties": { "AMIE": "18H00139", "NOM_INSTIT": "UNIDAD EDUCATIVA \"PEDRO FERMÍN CEVALLOS\"", "TE_fin": "MATRIZ", "ESTADO_IE_": "REGULAR", "Servicio_E": "Sí", "Servicio_A": "Sí", "Longitud": -78.631795, "Latitud": -1.243732 }, "geometry": { "type": "Point", "coordinates": [ -78.6317946, -1.24373243 ] } },
{ "type": "Feature", "properties": { "AMIE": "16B00141", "NOM_INSTIT": "UNIDAD EDUCATIVA COMUNITARIA INTERCULTURAL BILINGÜE \"CAMILO HUATATOCA\"", "TE_fin": "MATRIZ", "ESTADO_IE_": "REGULAR", "Servicio_E": "Sí", "Servicio_A": "Sí", "Longitud": -77.891222, "Latitud": -1.27021 }, "geometry": { "type": "Point", "coordinates": [ -77.8912217, -1.270210001 ] } },
{ "type": "Feature", "properties": { "AMIE": "16H00004", "NOM_INSTIT": "UNIDAD EDUCATIVA PROVINCIA DE PASTAZA", "TE_fin": "MATRIZ", "ESTADO_IE_": "MALO", "Servicio_E": "Sí", "Servicio_A": "Sí", "Longitud": -78.011016, "Latitud": -1.480564 }, "geometry": { "type": "Point", "coordinates": [ -78.0110164, -1.480563904 ] } },
{ "type": "Feature", "properties": { "AMIE": "16H00031", "NOM_INSTIT": "UNIDAD EDUCATIVA \"FRANCISCO DE ORELLANA\"", "TE_fin": "MATRIZ", "ESTADO_IE_": "REGULAR", "Servicio_E": "Sí", "Servicio_A": "Sí", "Longitud": -78.00962, "Latitud": -1.494119 }, "geometry": { "type": "Point", "coordinates": [ -78.00961984, -1.494118824 ] } },
{ "type": "Feature", "properties": { "AMIE": "08H01396", "NOM_INSTIT": "7 DE JULIO", "TE_fin": "MATRIZ", "ESTADO_IE_": "REGULAR", "Servicio_E": "Sí", "Servicio_A": "Sí", "Longitud": -79.396, "Latitud": 0.675056 }, "geometry": { "type": "Point", "coordinates": [ -79.396, 0.675055566 ] } },
{ "type": "Feature", "properties": { "AMIE": "15H00157", "NOM_INSTIT": "UNIDAD EDUCATIVA \"ARCHIDONA\"", "TE_fin": "MATRIZ", "ESTADO_IE_": "MALO", "Servicio_E": "Sí", "Servicio_A": "Sí", "Longitud": -77.804139, "Latitud": -0.910428 }, "geometry": { "type": "Point", "coordinates": [ -77.80413895, -0.910427821 ] } },
{ "type": "Feature", "properties": { "AMIE": "04H00368", "NOM_INSTIT": "UNIDAD EDUCATIVA \"CRISTOBAL COLON\"", "TE_fin": "MATRIZ", "ESTADO_IE_": "REGULAR", "Servicio_E": "Sí", "Servicio_A": "Sí", "Longitud": -77.810443, "Latitud": 0.606327 }, "geometry": { "type": "Point", "coordinates": [ -77.81044275, 0.606327477 ] } },
{ "type": "Feature", "properties": { "AMIE": "13H05409", "NOM_INSTIT": "UNIDAD EDUCATIVA \"BLANCA CUADROS ZAMBRANO\"", "TE_fin": "MATRIZ", "ESTADO_IE_": "BUENO", "Servicio_E": "Sí", "Servicio_A": "Sí", "Longitud": -80.444938, "Latitud": -0.954346 }, "geometry": { "type": "Point", "coordinates": [ -80.44493769, -0.95434611 ] } },
{ "type": "Feature", "properties": { "AMIE": "10H00225", "NOM_INSTIT": "UNIDAD EDUCATIVA \"JOSE MIGUEL LEORO VASQUEZ\"", "TE_fin": "MATRIZ", "ESTADO_IE_": "REGULAR", "Servicio_E": "Sí", "Servicio_A": "Sí", "Longitud": -78.17425, "Latitud": 0.329917 }, "geometry": { "type": "Point", "coordinates": [ -78.17425, 0.329916672 ] } },
{ "type": "Feature", "properties": { "AMIE": "21H00679", "NOM_INSTIT": "UNIDAD EDUCATIVA CASCALES", "TE_fin": "ESTABLECIMIENTO", "ESTADO_IE_": "REGULAR", "Servicio_E": "Sí", "Servicio_A": "Sí", "Longitud": -77.211187, "Latitud": 0.078517 }, "geometry": { "type": "Point", "coordinates": [ -77.21118672, 0.07851704 ] } },
{ "type": "Feature", "properties": { "AMIE": "21H00653", "NOM_INSTIT": "UNIDAD EDUCATIVA EL PLAYON", "TE_fin": "ESTABLECIMIENTO", "ESTADO_IE_": "REGULAR", "Servicio_E": "Sí", "Servicio_A": "Sí", "Longitud": -77.627184, "Latitud": 0.638 }, "geometry": { "type": "Point", "coordinates": [ -77.62718407, 0.637999593 ] } },
{ "type": "Feature", "properties": { "AMIE": "21H00724", "NOM_INSTIT": "UNIDAD EDUCATIVA HUMBERTO FIERRO", "TE_fin": "ESTABLECIMIENTO", "ESTADO_IE_": "REGULAR", "Servicio_E": "Sí", "Servicio_A": "Sí", "Longitud": -77.116732, "Latitud": 0.085529 }, "geometry": { "type": "Point", "coordinates": [ -77.11673228, 0.085528767 ] } },
{ "type": "Feature", "properties": { "AMIE": "21B00113", "NOM_INSTIT": "UNIDAD EDUCATIVA COMUNITARIA INTERCULTURAL BILINGÜE AB. MARTHA BUCARAM DE ROLDOS", "TE_fin": "ESTABLECIMIENTO", "ESTADO_IE_": "REGULAR", "Servicio_E": "Sí", "Servicio_A": "Sí", "Longitud": -76.620518, "Latitud": -0.40393 }, "geometry": { "type": "Point", "coordinates": [ -76.62051845, -0.403929715 ] } },
{ "type": "Feature", "properties": { "AMIE": "21H00724", "NOM_INSTIT": "UNIDAD EDUCATIVA HUMBERTO FIERRO", "TE_fin": "ESTABLECIMIENTO", "ESTADO_IE_": "REGULAR", "Servicio_E": "Sí", "Servicio_A": "Sí", "Longitud": -77.116732, "Latitud": 0.085529 }, "geometry": { "type": "Point", "coordinates": [ -77.11673228, 0.085528767 ] } },
{ "type": "Feature", "properties": { "AMIE": "18H00387", "NOM_INSTIT": "UNIDAD EDUCATIVA \"YANAHURCO\"", "TE_fin": "ESTABLECIMIENTO", "ESTADO_IE_": "REGULAR", "Servicio_E": "Sí", "Servicio_A": "Sí", "Longitud": -78.636145, "Latitud": -1.369935 }, "geometry": { "type": "Point", "coordinates": [ -78.63614452, -1.369935277 ] } },
{ "type": "Feature", "properties": { "AMIE": "18H00387", "NOM_INSTIT": "UNIDAD EDUCATIVA \"YANAHURCO\"", "TE_fin": "ESTABLECIMIENTO", "ESTADO_IE_": "REGULAR", "Servicio_E": "Sí", "Servicio_A": "Sí", "Longitud": -78.636145, "Latitud": -1.369935 }, "geometry": { "type": "Point", "coordinates": [ -78.63614452, -1.369935277 ] } },
{ "type": "Feature", "properties": { "AMIE": "18H00384", "NOM_INSTIT": "UNIDAD EDUCATIVA \"VICENTE ANDA AGUIRRE\"", "TE_fin": "ESTABLECIMIENTO", "ESTADO_IE_": "REGULAR", "Servicio_E": "Sí", "Servicio_A": "Sí", "Longitud": -78.653756, "Latitud": -1.420798 }, "geometry": { "type": "Point", "coordinates": [ -78.65375591, -1.420797659 ] } },
{ "type": "Feature", "properties": { "AMIE": "18H00384", "NOM_INSTIT": "UNIDAD EDUCATIVA \"VICENTE ANDA AGUIRRE\"", "TE_fin": "ESTABLECIMIENTO", "ESTADO_IE_": "REGULAR", "Servicio_E": "Sí", "Servicio_A": "Sí", "Longitud": -78.653756, "Latitud": -1.420798 }, "geometry": { "type": "Point", "coordinates": [ -78.65375591, -1.420797659 ] } },
{ "type": "Feature", "properties": { "AMIE": "20H00023", "NOM_INSTIT": "UNIDAD EDUCATIVA NACIONAL GALAPAGOS", "TE_fin": "ESTABLECIMIENTO", "ESTADO_IE_": "MALO", "Servicio_E": "Sí", "Servicio_A": "Sí", "Longitud": -90.314808, "Latitud": -0.737909 }, "geometry": { "type": "Point", "coordinates": [ -90.31480777, -0.737908791 ] } },
{ "type": "Feature", "properties": { "AMIE": "18H00367", "NOM_INSTIT": "UNIDAD EDUCATIVA \"PEDRO FERMÍN CEVALLOS\"", "TE_fin": "ESTABLECIMIENTO", "ESTADO_IE_": "REGULAR", "Servicio_E": "Sí", "Servicio_A": "Sí", "Longitud": -78.613803, "Latitud": -1.355326 }, "geometry": { "type": "Point", "coordinates": [ -78.61380342, -1.355325873 ] } },
{ "type": "Feature", "properties": { "AMIE": "18H00370", "NOM_INSTIT": "UNIDAD EDUCATIVA \"ALBERTO GUERRA\"", "TE_fin": "ESTABLECIMIENTO", "ESTADO_IE_": "REGULAR", "Servicio_E": "Sí", "Servicio_A": "Sí", "Longitud": -78.632789, "Latitud": -1.352954 }, "geometry": { "type": "Point", "coordinates": [ -78.6327894, -1.352953685 ] } },
{ "type": "Feature", "properties": { "AMIE": "18H00384", "NOM_INSTIT": "UNIDAD EDUCATIVA \"VICENTE ANDA AGUIRRE\"", "TE_fin": "ESTABLECIMIENTO", "ESTADO_IE_": "REGULAR", "Servicio_E": "Sí", "Servicio_A": "Sí", "Longitud": -78.653756, "Latitud": -1.420798 }, "geometry": { "type": "Point", "coordinates": [ -78.65375591, -1.420797659 ] } },
{ "type": "Feature", "properties": { "AMIE": "18H00367", "NOM_INSTIT": "UNIDAD EDUCATIVA \"PEDRO FERMÍN CEVALLOS\"", "TE_fin": "ESTABLECIMIENTO", "ESTADO_IE_": "REGULAR", "Servicio_E": "Sí", "Servicio_A": "Sí", "Longitud": -78.613803, "Latitud": -1.355326 }, "geometry": { "type": "Point", "coordinates": [ -78.61380342, -1.355325873 ] } },
{ "type": "Feature", "properties": { "AMIE": "18H00346", "NOM_INSTIT": "UNIDAD EDUCATIVA \"OSCAR EFRÉN REYES\"", "TE_fin": "ESTABLECIMIENTO", "ESTADO_IE_": "REGULAR", "Servicio_E": "Sí", "Servicio_A": "Sí", "Longitud": -78.420722, "Latitud": -1.397694 }, "geometry": { "type": "Point", "coordinates": [ -78.42072226, -1.397694424 ] } },
{ "type": "Feature", "properties": { "AMIE": "18H00367", "NOM_INSTIT": "UNIDAD EDUCATIVA \"PEDRO FERMÍN CEVALLOS\"", "TE_fin": "ESTABLECIMIENTO", "ESTADO_IE_": "REGULAR", "Servicio_E": "Sí", "Servicio_A": "Sí", "Longitud": -78.613803, "Latitud": -1.355326 }, "geometry": { "type": "Point", "coordinates": [ -78.61380342, -1.355325873 ] } },
{ "type": "Feature", "properties": { "AMIE": "18H00384", "NOM_INSTIT": "UNIDAD EDUCATIVA \"VICENTE ANDA AGUIRRE\"", "TE_fin": "ESTABLECIMIENTO", "ESTADO_IE_": "REGULAR", "Servicio_E": "Sí", "Servicio_A": "Sí", "Longitud": -78.653756, "Latitud": -1.420798 }, "geometry": { "type": "Point", "coordinates": [ -78.65375591, -1.420797659 ] } },
{ "type": "Feature", "properties": { "AMIE": "18H00139", "NOM_INSTIT": "UNIDAD EDUCATIVA \"PEDRO FERMÍN CEVALLOS\"", "TE_fin": "ESTABLECIMIENTO", "ESTADO_IE_": "REGULAR", "Servicio_E": "Sí", "Servicio_A": "Sí", "Longitud": -78.631795, "Latitud": -1.243732 }, "geometry": { "type": "Point", "coordinates": [ -78.6317946, -1.24373243 ] } },
{ "type": "Feature", "properties": { "AMIE": "18H00176", "NOM_INSTIT": "UNIDAD EDUCATIVA CÉSAR AUGUSTO SALAZAR CHÁVEZ", "TE_fin": "ESTABLECIMIENTO", "ESTADO_IE_": "REGULAR", "Servicio_E": "Sí", "Servicio_A": "Sí", "Longitud": -78.595414, "Latitud": -1.209863 }, "geometry": { "type": "Point", "coordinates": [ -78.5954139, -1.209862765 ] } },
{ "type": "Feature", "properties": { "AMIE": "18H00110", "NOM_INSTIT": "UNIDAD EDUCATIVA \"TERESA FLOR\"", "TE_fin": "ESTABLECIMIENTO", "ESTADO_IE_": "REGULAR", "Servicio_E": "Sí", "Servicio_A": "Sí", "Longitud": -78.621896, "Latitud": -1.23732 }, "geometry": { "type": "Point", "coordinates": [ -78.6218961, -1.23732005 ] } },
{ "type": "Feature", "properties": { "AMIE": "18H00108", "NOM_INSTIT": "UNIDAD EDUCATIVA \"AMBATO\"", "TE_fin": "ESTABLECIMIENTO", "ESTADO_IE_": "REGULAR", "Servicio_E": "Sí", "Servicio_A": "Sí", "Longitud": -78.624937, "Latitud": -1.233232 }, "geometry": { "type": "Point", "coordinates": [ -78.62493685, -1.233231988 ] } },
{ "type": "Feature", "properties": { "AMIE": "18H00242", "NOM_INSTIT": "UNIDAD EDUCATIVA PASA", "TE_fin": "ESTABLECIMIENTO", "ESTADO_IE_": "REGULAR", "Servicio_E": "Sí", "Servicio_A": "Sí", "Longitud": -78.731932, "Latitud": -1.268552 }, "geometry": { "type": "Point", "coordinates": [ -78.73193239, -1.268552226 ] } },
{ "type": "Feature", "properties": { "AMIE": "18H00175", "NOM_INSTIT": "UNIDAD EDUCATIVA \"ATAHUALPA\"", "TE_fin": "ESTABLECIMIENTO", "ESTADO_IE_": "MALO", "Servicio_E": "Sí", "Servicio_A": "Sí", "Longitud": -78.611808, "Latitud": -1.214643 }, "geometry": { "type": "Point", "coordinates": [ -78.61180798, -1.214643263 ] } },
{ "type": "Feature", "properties": { "AMIE": "18H00242", "NOM_INSTIT": "UNIDAD EDUCATIVA PASA", "TE_fin": "ESTABLECIMIENTO", "ESTADO_IE_": "REGULAR", "Servicio_E": "Sí", "Servicio_A": "Sí", "Longitud": -78.731932, "Latitud": -1.268552 }, "geometry": { "type": "Point", "coordinates": [ -78.73193239, -1.268552226 ] } },
{ "type": "Feature", "properties": { "AMIE": "18H00175", "NOM_INSTIT": "UNIDAD EDUCATIVA \"ATAHUALPA\"", "TE_fin": "ESTABLECIMIENTO", "ESTADO_IE_": "MALO", "Servicio_E": "Sí", "Servicio_A": "Sí", "Longitud": -78.611808, "Latitud": -1.214643 }, "geometry": { "type": "Point", "coordinates": [ -78.61180798, -1.214643263 ] } },
{ "type": "Feature", "properties": { "AMIE": "16H00190", "NOM_INSTIT": "UNIDAD EDUCATIVA INTERCULTURAL ROGERS MC CULLY", "TE_fin": "ESTABLECIMIENTO", "ESTADO_IE_": "MALO", "Servicio_E": "Sí", "Servicio_A": "Sí", "Longitud": -77.689538, "Latitud": -1.233876 }, "geometry": { "type": "Point", "coordinates": [ -77.68953771, -1.23387589 ] } },
{ "type": "Feature", "properties": { "AMIE": "16H00114", "NOM_INSTIT": "UNIDAD EDUCATIVA \"MUSHULLACTA\"", "TE_fin": "ESTABLECIMIENTO", "ESTADO_IE_": "REGULAR", "Servicio_E": "Sí", "Servicio_A": "Sí", "Longitud": -77.844887, "Latitud": -1.719178 }, "geometry": { "type": "Point", "coordinates": [ -77.84488714, -1.71917812 ] } },
{ "type": "Feature", "properties": { "AMIE": "17H03695", "NOM_INSTIT": "UNIDAD EDUCATIVA PARA LA FORMACIÓN DEPORTIVA INTEGRAL INDEPENDIENTE DEL VALLE", "TE_fin": "MATRIZ", "ESTADO_IE_": "S/I", "Servicio_E": "No", "Servicio_A": "Sí", "Longitud": -78.469781, "Latitud": -0.348576 }, "geometry": { "type": "Point", "coordinates": [ -78.46978114, -0.348576203 ] } },
{ "type": "Feature", "properties": { "AMIE": "15H00157", "NOM_INSTIT": "UNIDAD EDUCATIVA \"ARCHIDONA\"", "TE_fin": "ESTABLECIMIENTO", "ESTADO_IE_": "MALO", "Servicio_E": "Sí", "Servicio_A": "Sí", "Longitud": -77.804139, "Latitud": -0.910428 }, "geometry": { "type": "Point", "coordinates": [ -77.80413895, -0.910427821 ] } },
{ "type": "Feature", "properties": { "AMIE": "15H00125", "NOM_INSTIT": "UNIDAD EDUCATIVA “MISAHUALLÍ\"", "TE_fin": "ESTABLECIMIENTO", "ESTADO_IE_": "REGULAR", "Servicio_E": "Sí", "Servicio_A": "Sí", "Longitud": -77.671389, "Latitud": -1.035222 }, "geometry": { "type": "Point", "coordinates": [ -77.67138886, -1.035222219 ] } },
{ "type": "Feature", "properties": { "AMIE": "15H00226", "NOM_INSTIT": "UNIDAD EDUCATIVA BAEZA", "TE_fin": "ESTABLECIMIENTO", "ESTADO_IE_": "REGULAR", "Servicio_E": "Sí", "Servicio_A": "Sí", "Longitud": -77.888802, "Latitud": -0.463976 }, "geometry": { "type": "Point", "coordinates": [ -77.88880161, -0.463976091 ] } },
{ "type": "Feature", "properties": { "AMIE": "15H00209", "NOM_INSTIT": "NAPO", "TE_fin": "ESTABLECIMIENTO", "ESTADO_IE_": "REGULAR", "Servicio_E": "Sí", "Servicio_A": "Sí", "Longitud": -77.809628, "Latitud": -0.337779 }, "geometry": { "type": "Point", "coordinates": [ -77.80962752, -0.33777912 ] } },
{ "type": "Feature", "properties": { "AMIE": "15H00208", "NOM_INSTIT": "UNIDAD EDUCATIVA “EL CHACO”", "TE_fin": "ESTABLECIMIENTO", "ESTADO_IE_": "MALO", "Servicio_E": "Sí", "Servicio_A": "Sí", "Longitud": -77.813954, "Latitud": -0.338176 }, "geometry": { "type": "Point", "coordinates": [ -77.81395397, -0.338175619 ] } },
{ "type": "Feature", "properties": { "AMIE": "16B00150", "NOM_INSTIT": "UNIDAD EDUCATIVA INTERCULTURAL BILINGUE GABRIEL LÓPEZ", "TE_fin": "ESTABLECIMIENTO", "ESTADO_IE_": "MALO", "Servicio_E": "Sí", "Servicio_A": "Sí", "Longitud": -77.692735, "Latitud": -1.233986 }, "geometry": { "type": "Point", "coordinates": [ -77.6927349, -1.233986277 ] } },
{ "type": "Feature", "properties": { "AMIE": "14H00277", "NOM_INSTIT": "UNIDAD EDUCATIVA 24 DE MAYO", "TE_fin": "ESTABLECIMIENTO", "ESTADO_IE_": "REGULAR", "Servicio_E": "Sí", "Servicio_A": "Sí", "Longitud": -78.319796, "Latitud": -2.717648 }, "geometry": { "type": "Point", "coordinates": [ -78.31979641, -2.71764831 ] } },
{ "type": "Feature", "properties": { "AMIE": "14H00057", "NOM_INSTIT": "UNIDAD EDUCATIVA ÁNGEL NOGUERA VILLAREAL", "TE_fin": "ESTABLECIMIENTO", "ESTADO_IE_": "MALO", "Servicio_E": "Sí", "Servicio_A": "Sí", "Longitud": -78.097778, "Latitud": -2.301667 }, "geometry": { "type": "Point", "coordinates": [ -78.09777778, -2.301666682 ] } },
{ "type": "Feature", "properties": { "AMIE": "14H00193", "NOM_INSTIT": "UNIDAD EDUCATIVA LIMÓN", "TE_fin": "ESTABLECIMIENTO", "ESTADO_IE_": "REGULAR", "Servicio_E": "Sí", "Servicio_A": "Sí", "Longitud": -78.439234, "Latitud": -2.972432 }, "geometry": { "type": "Point", "coordinates": [ -78.4392345, -2.972431806 ] } },
{ "type": "Feature", "properties": { "AMIE": "13H04266", "NOM_INSTIT": "UNIDAD EDUCATIVA \"LUIS FELIPE CHÁVEZ # 76\"", "TE_fin": "ESTABLECIMIENTO", "ESTADO_IE_": "BUENO", "Servicio_E": "Sí", "Servicio_A": "Sí", "Longitud": -80.63578, "Latitud": -0.949484 }, "geometry": { "type": "Point", "coordinates": [ -80.63577959, -0.949484261 ] } },
{ "type": "Feature", "properties": { "AMIE": "14H00001", "NOM_INSTIT": "ESCUELA DE EDUCACION BASICA 29 DE MAYO", "TE_fin": "ESTABLECIMIENTO", "ESTADO_IE_": "REGULAR", "Servicio_E": "Sí", "Servicio_A": "Sí", "Longitud": -78.126301, "Latitud": -2.309773 }, "geometry": { "type": "Point", "coordinates": [ -78.12630068, -2.309772685 ] } },
{ "type": "Feature", "properties": { "AMIE": "13H05409", "NOM_INSTIT": "UNIDAD EDUCATIVA \"BLANCA CUADROS ZAMBRANO\"", "TE_fin": "ESTABLECIMIENTO", "ESTADO_IE_": "BUENO", "Servicio_E": "Sí", "Servicio_A": "Sí", "Longitud": -80.444938, "Latitud": -0.954346 }, "geometry": { "type": "Point", "coordinates": [ -80.44493769, -0.95434611 ] } },
{ "type": "Feature", "properties": { "AMIE": "13H02742", "NOM_INSTIT": "UNIDAD EDUCATIVA “DR. DANIEL ACOSTA ROSALES”", "TE_fin": "ESTABLECIMIENTO", "ESTADO_IE_": "REGULAR", "Servicio_E": "Sí", "Servicio_A": "Sí", "Longitud": -80.675765, "Latitud": -1.086962 }, "geometry": { "type": "Point", "coordinates": [ -80.67576484, -1.08696163 ] } },
{ "type": "Feature", "properties": { "AMIE": "13H03411", "NOM_INSTIT": "UNIDAD EDUCATIVA “MARCOS MANUEL MERO LÓPEZ”", "TE_fin": "ESTABLECIMIENTO", "ESTADO_IE_": "REGULAR", "Servicio_E": "Sí", "Servicio_A": "Sí", "Longitud": -80.42663, "Latitud": -0.624405 }, "geometry": { "type": "Point", "coordinates": [ -80.42663031, -0.624404821 ] } },
{ "type": "Feature", "properties": { "AMIE": "14H00006", "NOM_INSTIT": "ESCUELA DE EDUCACIÓN BÁSICA ELOY ALFARO", "TE_fin": "ESTABLECIMIENTO", "ESTADO_IE_": "REGULAR", "Servicio_E": "Sí", "Servicio_A": "Sí", "Longitud": -78.117607, "Latitud": -2.303655 }, "geometry": { "type": "Point", "coordinates": [ -78.1176074, -2.303655249 ] } },
{ "type": "Feature", "properties": { "AMIE": "10H00563", "NOM_INSTIT": "UNIDAD EDUCATIVA “5 DE JUNIO”", "TE_fin": "ESTABLECIMIENTO", "ESTADO_IE_": "BUENO", "Servicio_E": "Sí", "Servicio_A": "Sí", "Longitud": -78.189879, "Latitud": 0.501182 }, "geometry": { "type": "Point", "coordinates": [ -78.18987897, 0.501181869 ] } },
{ "type": "Feature", "properties": { "AMIE": "10H00046", "NOM_INSTIT": "ESCUELA DE EDUCACIÓN BÁSICA “YAGUACHI”", "TE_fin": "ESTABLECIMIENTO", "ESTADO_IE_": "REGULAR", "Servicio_E": "Sí", "Servicio_A": "Sí", "Longitud": -78.110539, "Latitud": 0.359959 }, "geometry": { "type": "Point", "coordinates": [ -78.11053898, 0.359959112 ] } },
{ "type": "Feature", "properties": { "AMIE": "10H00538", "NOM_INSTIT": "UNIDAD EDUCATIVA “URCUQUI”", "TE_fin": "ESTABLECIMIENTO", "ESTADO_IE_": "REGULAR", "Servicio_E": "Sí", "Servicio_A": "Sí", "Longitud": -78.193228, "Latitud": 0.418339 }, "geometry": { "type": "Point", "coordinates": [ -78.193228, 0.418339477 ] } },
{ "type": "Feature", "properties": { "AMIE": "10H00336", "NOM_INSTIT": "UNIDAD EDUCATIVA \"ISLA SANTA ISABEL\"", "TE_fin": "ESTABLECIMIENTO", "ESTADO_IE_": "MALO", "Servicio_E": "Sí", "Servicio_A": "Sí", "Longitud": -78.747786, "Latitud": 0.23694 }, "geometry": { "type": "Point", "coordinates": [ -78.74778599, 0.2369397 ] } },
{ "type": "Feature", "properties": { "AMIE": "07H00852", "NOM_INSTIT": "UNIDAD EDUCATIVA 8 DE NOVIEMBRE", "TE_fin": "ESTABLECIMIENTO", "ESTADO_IE_": "REGULAR", "Servicio_E": "Sí", "Servicio_A": "Sí", "Longitud": -79.677786, "Latitud": -3.683062 }, "geometry": { "type": "Point", "coordinates": [ -79.67778593, -3.683062256 ] } },
{ "type": "Feature", "properties": { "AMIE": "07H01194", "NOM_INSTIT": "UNIDAD EDUCATIVA PADRE JUAN DE VELASCO", "TE_fin": "ESTABLECIMIENTO", "ESTADO_IE_": "REGULAR", "Servicio_E": "Sí", "Servicio_A": "Sí", "Longitud": -80.072776, "Latitud": -3.803732 }, "geometry": { "type": "Point", "coordinates": [ -80.07277604, -3.803732101 ] } },
{ "type": "Feature", "properties": { "AMIE": "07H00991", "NOM_INSTIT": "UNIDAD EDUCATIVA JUAN JOSÉ LOAYZA", "TE_fin": "ESTABLECIMIENTO", "ESTADO_IE_": "REGULAR", "Servicio_E": "Sí", "Servicio_A": "Sí", "Longitud": -79.857888, "Latitud": -3.646945 }, "geometry": { "type": "Point", "coordinates": [ -79.85788778, -3.646945426 ] } },
{ "type": "Feature", "properties": { "AMIE": "07H01247", "NOM_INSTIT": "UNIDAD EDUCATIVA HUERTAS", "TE_fin": "ESTABLECIMIENTO", "ESTADO_IE_": "REGULAR", "Servicio_E": "Sí", "Servicio_A": "Sí", "Longitud": -79.632, "Latitud": -3.606139 }, "geometry": { "type": "Point", "coordinates": [ -79.63200005, -3.606138961 ] } },
{ "type": "Feature", "properties": { "AMIE": "07H01012", "NOM_INSTIT": "UNIDAD EDUCATIVA CURTINCAPAC", "TE_fin": "ESTABLECIMIENTO", "ESTADO_IE_": "REGULAR", "Servicio_E": "Sí", "Servicio_A": "Sí", "Longitud": -79.548525, "Latitud": -3.731314 }, "geometry": { "type": "Point", "coordinates": [ -79.54852498, -3.731314453 ] } },
{ "type": "Feature", "properties": { "AMIE": "07H00954", "NOM_INSTIT": "UNIDAD EDUCATIVA 13 DE MAYO", "TE_fin": "ESTABLECIMIENTO", "ESTADO_IE_": "REGULAR", "Servicio_E": "Sí", "Servicio_A": "Sí", "Longitud": -79.618695, "Latitud": -3.718972 }, "geometry": { "type": "Point", "coordinates": [ -79.61869451, -3.718972244 ] } },
{ "type": "Feature", "properties": { "AMIE": "08H00187", "NOM_INSTIT": "UNIDAD EDUCATIVA DR. LUIS PRADO VITERI", "TE_fin": "ESTABLECIMIENTO", "ESTADO_IE_": "MALO", "Servicio_E": "Sí", "Servicio_A": "Sí", "Longitud": -79.655013, "Latitud": 0.983553 }, "geometry": { "type": "Point", "coordinates": [ -79.65501345, 0.98355314 ] } },
{ "type": "Feature", "properties": { "AMIE": "07H01260", "NOM_INSTIT": "UNIDAD EDUCATIVA 7 DE SEPTIEMBRE", "TE_fin": "ESTABLECIMIENTO", "ESTADO_IE_": "REGULAR", "Servicio_E": "Sí", "Servicio_A": "Sí", "Longitud": -79.636694, "Latitud": -3.637639 }, "geometry": { "type": "Point", "coordinates": [ -79.63669449, -3.637638973 ] } },
{ "type": "Feature", "properties": { "AMIE": "06H00204", "NOM_INSTIT": "UNIDAD EDUCATIVA \"AMELIA GALLEGOS DÌAZ\"", "TE_fin": "ESTABLECIMIENTO", "ESTADO_IE_": "REGULAR", "Servicio_E": "Sí", "Servicio_A": "Sí", "Longitud": -78.645014, "Latitud": -1.680136 }, "geometry": { "type": "Point", "coordinates": [ -78.64501371, -1.680136193 ] } },
{ "type": "Feature", "properties": { "AMIE": "07H00472", "NOM_INSTIT": "UNIDAD EDUCATIVA ANGEL TINOCO RUIZ", "TE_fin": "ESTABLECIMIENTO", "ESTADO_IE_": "REGULAR", "Servicio_E": "Sí", "Servicio_A": "Sí", "Longitud": -79.666722, "Latitud": -3.588417 }, "geometry": { "type": "Point", "coordinates": [ -79.66672224, -3.588416697 ] } },
{ "type": "Feature", "properties": { "AMIE": "05H00801", "NOM_INSTIT": "UNIDAD EDUCATIVA SAN FRANCISCO DE LAS PAMPAS", "TE_fin": "ESTABLECIMIENTO", "ESTADO_IE_": "BUENO", "Servicio_E": "Sí", "Servicio_A": "Sí", "Longitud": -78.967642, "Latitud": -0.429294 }, "geometry": { "type": "Point", "coordinates": [ -78.96764207, -0.429294347 ] } },
{ "type": "Feature", "properties": { "AMIE": "06H00044", "NOM_INSTIT": "UNIDAD EDUCATIVA \"ONCE DE NOVIEMBRE\"", "TE_fin": "ESTABLECIMIENTO", "ESTADO_IE_": "REGULAR", "Servicio_E": "Sí", "Servicio_A": "Sí", "Longitud": -78.652434, "Latitud": -1.673953 }, "geometry": { "type": "Point", "coordinates": [ -78.65243438, -1.673952964 ] } },
{ "type": "Feature", "properties": { "AMIE": "06H00204", "NOM_INSTIT": "UNIDAD EDUCATIVA \"AMELIA GALLEGOS DÌAZ\"", "TE_fin": "ESTABLECIMIENTO", "ESTADO_IE_": "REGULAR", "Servicio_E": "Sí", "Servicio_A": "Sí", "Longitud": -78.645014, "Latitud": -1.680136 }, "geometry": { "type": "Point", "coordinates": [ -78.64501371, -1.680136193 ] } },
{ "type": "Feature", "properties": { "AMIE": "07H00472", "NOM_INSTIT": "UNIDAD EDUCATIVA ANGEL TINOCO RUIZ", "TE_fin": "ESTABLECIMIENTO", "ESTADO_IE_": "REGULAR", "Servicio_E": "Sí", "Servicio_A": "Sí", "Longitud": -79.666722, "Latitud": -3.588417 }, "geometry": { "type": "Point", "coordinates": [ -79.66672224, -3.588416697 ] } },
{ "type": "Feature", "properties": { "AMIE": "01H01527", "NOM_INSTIT": "ESCUELA DE EDUCACIÓN BÁSICA CIUDAD DE GUACHAPALA", "TE_fin": "ESTABLECIMIENTO", "ESTADO_IE_": "BUENO", "Servicio_E": "Sí", "Servicio_A": "Sí", "Longitud": -78.713057, "Latitud": -2.77196 }, "geometry": { "type": "Point", "coordinates": [ -78.71305668, -2.771960023 ] } },
{ "type": "Feature", "properties": { "AMIE": "05H00772", "NOM_INSTIT": "UNIDAD EDUCATIVAJUAN JOSÉ FLORES", "TE_fin": "ESTABLECIMIENTO", "ESTADO_IE_": "REGULAR", "Servicio_E": "Sí", "Servicio_A": "Sí", "Longitud": -78.919943, "Latitud": -0.799948 }, "geometry": { "type": "Point", "coordinates": [ -78.91994332, -0.79994772 ] } },
{ "type": "Feature", "properties": { "AMIE": "05H00781", "NOM_INSTIT": "UNIDAD EDUCATIVA ISINLIVI", "TE_fin": "ESTABLECIMIENTO", "ESTADO_IE_": "MALO", "Servicio_E": "Sí", "Servicio_A": "Sí", "Longitud": -78.867456, "Latitud": -0.763133 }, "geometry": { "type": "Point", "coordinates": [ -78.86745601, -0.763132798 ] } },
{ "type": "Feature", "properties": { "AMIE": "01H01512", "NOM_INSTIT": "UNIDAD EDUCATIVA LAS PALMAS", "TE_fin": "ESTABLECIMIENTO", "ESTADO_IE_": "REGULAR", "Servicio_E": "Sí", "Servicio_A": "Sí", "Longitud": -78.630292, "Latitud": -2.717192 }, "geometry": { "type": "Point", "coordinates": [ -78.63029179, -2.717191824 ] } },
{ "type": "Feature", "properties": { "AMIE": "04H00330", "NOM_INSTIT": "UNIDAD EDUCATIVA ABDÓN CALDERÓN", "TE_fin": "ESTABLECIMIENTO", "ESTADO_IE_": "REGULAR", "Servicio_E": "Sí", "Servicio_A": "Sí", "Longitud": -77.83574, "Latitud": 0.600215 }, "geometry": { "type": "Point", "coordinates": [ -77.83573982, 0.600214976 ] } },
{ "type": "Feature", "properties": { "AMIE": "01H01481", "NOM_INSTIT": "UNIDAD EDUCATIVA EL PAN", "TE_fin": "ESTABLECIMIENTO", "ESTADO_IE_": "MALO", "Servicio_E": "Sí", "Servicio_A": "Sí", "Longitud": -78.668257, "Latitud": -2.792985 }, "geometry": { "type": "Point", "coordinates": [ -78.66825698, -2.792984681 ] } },
{ "type": "Feature", "properties": { "AMIE": "01H01257", "NOM_INSTIT": "UNIDAD EDUCATIVA \"SAN RAFAEL DE SHARUG\"", "TE_fin": "ESTABLECIMIENTO", "ESTADO_IE_": "REGULAR", "Servicio_E": "Sí", "Servicio_A": "Sí", "Longitud": -79.547222, "Latitud": -3.277361 }, "geometry": { "type": "Point", "coordinates": [ -79.54722226, -3.277361125 ] } },
{ "type": "Feature", "properties": { "AMIE": "01H01187", "NOM_INSTIT": "UNIDAD EDUCATIVA SAN PABLO DE GUARAINAG", "TE_fin": "ESTABLECIMIENTO", "ESTADO_IE_": "REGULAR", "Servicio_E": "Sí", "Servicio_A": "Sí", "Longitud": -78.632861, "Latitud": -2.664861 }, "geometry": { "type": "Point", "coordinates": [ -78.6328611, -2.664861075 ] } },
{ "type": "Feature", "properties": { "AMIE": "01H01498", "NOM_INSTIT": "UNIDAD EDUCATIVA SEVILLA DE ORO", "TE_fin": "ESTABLECIMIENTO", "ESTADO_IE_": "REGULAR", "Servicio_E": "Sí", "Servicio_A": "Sí", "Longitud": -78.65352, "Latitud": -2.797623 }, "geometry": { "type": "Point", "coordinates": [ -78.65351977, -2.797623453 ] } },
{ "type": "Feature", "properties": { "AMIE": "01H01441", "NOM_INSTIT": "UNIDAD EDUCATIVA OÑA", "TE_fin": "ESTABLECIMIENTO", "ESTADO_IE_": "REGULAR", "Servicio_E": "Sí", "Servicio_A": "Sí", "Longitud": -79.152574, "Latitud": -3.46713 }, "geometry": { "type": "Point", "coordinates": [ -79.15257361, -3.467129865 ] } },
{ "type": "Feature", "properties": { "AMIE": "01H01237", "NOM_INSTIT": "UNIDAD EDUCATIVA SARAYUNGA", "TE_fin": "ESTABLECIMIENTO", "ESTADO_IE_": "REGULAR", "Servicio_E": "Sí", "Servicio_A": "Sí", "Longitud": -79.58247, "Latitud": -3.316773 }, "geometry": { "type": "Point", "coordinates": [ -79.5824701, -3.316772509 ] } },
{ "type": "Feature", "properties": { "AMIE": "01H01500", "NOM_INSTIT": "UNIDAD EDUCATIVA AMALUZA", "TE_fin": "ESTABLECIMIENTO", "ESTADO_IE_": "REGULAR", "Servicio_E": "Sí", "Servicio_A": "Sí", "Longitud": -78.559917, "Latitud": -2.614 }, "geometry": { "type": "Point", "coordinates": [ -78.55991667, -2.614000028 ] } },
{ "type": "Feature", "properties": { "AMIE": "01H01500", "NOM_INSTIT": "UNIDAD EDUCATIVA AMALUZA", "TE_fin": "ESTABLECIMIENTO", "ESTADO_IE_": "REGULAR", "Servicio_E": "Sí", "Servicio_A": "Sí", "Longitud": -78.559917, "Latitud": -2.614 }, "geometry": { "type": "Point", "coordinates": [ -78.55991667, -2.614000028 ] } },
{ "type": "Feature", "properties": { "AMIE": "01H01327", "NOM_INSTIT": "UNIDAD EDUCATIVA “SAN PEDRO DE SHAGLLI”", "TE_fin": "ESTABLECIMIENTO", "ESTADO_IE_": "REGULAR", "Servicio_E": "Sí", "Servicio_A": "Sí", "Longitud": -79.376861, "Latitud": -3.175293 }, "geometry": { "type": "Point", "coordinates": [ -79.37686059, -3.175293113 ] } },
{ "type": "Feature", "properties": { "AMIE": "01H00966", "NOM_INSTIT": "UNIDAD EDUCATIVA REMIGIO CRESPO TORAL", "TE_fin": "ESTABLECIMIENTO", "ESTADO_IE_": "REGULAR", "Servicio_E": "Sí", "Servicio_A": "Sí", "Longitud": -79.258056, "Latitud": -3.21 }, "geometry": { "type": "Point", "coordinates": [ -79.25805558, -3.20999996 ] } },
{ "type": "Feature", "properties": { "AMIE": "01H00942", "NOM_INSTIT": "UNIDAD EDUCATIVA CIUDAD DE GIRÓN", "TE_fin": "ESTABLECIMIENTO", "ESTADO_IE_": "REGULAR", "Servicio_E": "Sí", "Servicio_A": "Sí", "Longitud": -79.144009, "Latitud": -3.152372 }, "geometry": { "type": "Point", "coordinates": [ -79.14400886, -3.152371708 ] } },
{ "type": "Feature", "properties": { "AMIE": "24H00028", "NOM_INSTIT": "ESCUELA DE EDUCACIÓN BÁSICA CARLOS ARMANDO ROMERO RODAS N 10", "TE_fin": "MATRIZ", "ESTADO_IE_": "REGULAR", "Servicio_E": "Sí", "Servicio_A": "Sí", "Longitud": -80.356718, "Latitud": -2.386154 }, "geometry": { "type": "Point", "coordinates": [ -80.35671833, -2.386154373 ] } },
{ "type": "Feature", "properties": { "AMIE": "24H00129", "NOM_INSTIT": "ESCUELA DE EDUCACIÓN BÁSICA DR CARLOS CAMACHO NAVARRO", "TE_fin": "MATRIZ", "ESTADO_IE_": "BUENO", "Servicio_E": "Sí", "Servicio_A": "Sí", "Longitud": -80.269938, "Latitud": -2.332665 }, "geometry": { "type": "Point", "coordinates": [ -80.26993763, -2.33266455 ] } },
{ "type": "Feature", "properties": { "AMIE": "24H00117", "NOM_INSTIT": "UNIDAD EDUCATIVA ELISA AYALA GONZÁLEZ", "TE_fin": "MATRIZ", "ESTADO_IE_": "REGULAR", "Servicio_E": "Sí", "Servicio_A": "Sí", "Longitud": -80.285878, "Latitud": -2.307596 }, "geometry": { "type": "Point", "coordinates": [ -80.28587758, -2.307595989 ] } },
{ "type": "Feature", "properties": { "AMIE": "24H00116", "NOM_INSTIT": "ESCUELA DE EDUCACIÓN BÁSICA SIETE DE NOVIEMBRE", "TE_fin": "MATRIZ", "ESTADO_IE_": "REGULAR", "Servicio_E": "Sí", "Servicio_A": "Sí", "Longitud": -80.265965, "Latitud": -2.293853 }, "geometry": { "type": "Point", "coordinates": [ -80.26596451, -2.293853327 ] } },
{ "type": "Feature", "properties": { "AMIE": "23H00638", "NOM_INSTIT": "ESCUELA DE EDUCACIÓN BÁSICA \"CIUDAD DE PORTOVIEJO\"", "TE_fin": "MATRIZ", "ESTADO_IE_": "REGULAR", "Servicio_E": "Sí", "Servicio_A": "Sí", "Longitud": -79.225861, "Latitud": -0.362472 }, "geometry": { "type": "Point", "coordinates": [ -79.22586111, -0.362472219 ] } },
{ "type": "Feature", "properties": { "AMIE": "23H00641", "NOM_INSTIT": "ESCUELA DE EDUCACIÓN BÁSICA \"CIUDAD DE MACARA\"", "TE_fin": "MATRIZ", "ESTADO_IE_": "MALO", "Servicio_E": "Sí", "Servicio_A": "Sí", "Longitud": -79.228444, "Latitud": -0.474556 }, "geometry": { "type": "Point", "coordinates": [ -79.22844445, -0.474555554 ] } },
{ "type": "Feature", "properties": { "AMIE": "23H00639", "NOM_INSTIT": "UNIDAD EDUCATIVA \"LUIS ISCH CHIRIBOGA\"", "TE_fin": "MATRIZ", "ESTADO_IE_": "REGULAR", "Servicio_E": "Sí", "Servicio_A": "Sí", "Longitud": -79.185722, "Latitud": -0.451639 }, "geometry": { "type": "Point", "coordinates": [ -79.18572223, -0.451639046 ] } },
{ "type": "Feature", "properties": { "AMIE": "23H00651", "NOM_INSTIT": "ESCUELA DE EDUCACIÓN BÁSICA “TENIENTE CARLOS DÍAZ TERÁN”", "TE_fin": "MATRIZ", "ESTADO_IE_": "REGULAR", "Servicio_E": "Sí", "Servicio_A": "Sí", "Longitud": -79.261667, "Latitud": -0.527194 }, "geometry": { "type": "Point", "coordinates": [ -79.26166667, -0.52719444 ] } },
{ "type": "Feature", "properties": { "AMIE": "23H00632", "NOM_INSTIT": "ESCUELA DE EDUCACIÓN BÁSICA \"MANUEL RIVADENEIRA\"", "TE_fin": "MATRIZ", "ESTADO_IE_": "REGULAR", "Servicio_E": "Sí", "Servicio_A": "Sí", "Longitud": -79.209556, "Latitud": -0.389389 }, "geometry": { "type": "Point", "coordinates": [ -79.20955553, -0.389388507 ] } },
{ "type": "Feature", "properties": { "AMIE": "23H00604", "NOM_INSTIT": "ESCUELA DE EDUCACIÓN BÁSICA CARLOS BOLÍVAR SEVILLA", "TE_fin": "MATRIZ", "ESTADO_IE_": "MALO", "Servicio_E": "Sí", "Servicio_A": "Sí", "Longitud": -79.177056, "Latitud": -0.081833 }, "geometry": { "type": "Point", "coordinates": [ -79.17705555, -0.081833333 ] } },
{ "type": "Feature", "properties": { "AMIE": "23H00602", "NOM_INSTIT": "ESCUELA DE EDUCACIÓN BÁSICA MARIANO SUAREZ VEINTIMILLA", "TE_fin": "MATRIZ", "ESTADO_IE_": "REGULAR", "Servicio_E": "Sí", "Servicio_A": "Sí", "Longitud": -79.224333, "Latitud": -0.079833 }, "geometry": { "type": "Point", "coordinates": [ -79.22433333, -0.079833334 ] } },
{ "type": "Feature", "properties": { "AMIE": "23H00621", "NOM_INSTIT": "ESCUELA DE EDUCACIÓN BÁSICA \"ADOLFO SERRANO DUQUE\"", "TE_fin": "MATRIZ", "ESTADO_IE_": "REGULAR", "Servicio_E": "Sí", "Servicio_A": "Sí", "Longitud": -79.202222, "Latitud": -0.4285 }, "geometry": { "type": "Point", "coordinates": [ -79.2022223, -0.428499871 ] } },
{ "type": "Feature", "properties": { "AMIE": "23H00598", "NOM_INSTIT": "ESCUELA DE EDUCACIÓN BÁSICA JOSÉ IGNACIO CONDOY", "TE_fin": "MATRIZ", "ESTADO_IE_": "REGULAR", "Servicio_E": "Sí", "Servicio_A": "Sí", "Longitud": -79.130528, "Latitud": -0.0455 }, "geometry": { "type": "Point", "coordinates": [ -79.13052778, -0.045499996 ] } },
{ "type": "Feature", "properties": { "AMIE": "23H00623", "NOM_INSTIT": "ESCUELA DE EDUCACIÓN BÁSICA “RIO CURARAY”", "TE_fin": "MATRIZ", "ESTADO_IE_": "REGULAR", "Servicio_E": "Sí", "Servicio_A": "Sí", "Longitud": -79.242472, "Latitud": -0.391333 }, "geometry": { "type": "Point", "coordinates": [ -79.2424722, -0.391333402 ] } },
{ "type": "Feature", "properties": { "AMIE": "23H00599", "NOM_INSTIT": "ESCUELA DE EDUCACIÓN BÁSICA CORONEL LUIS LARREA ALBA", "TE_fin": "MATRIZ", "ESTADO_IE_": "REGULAR", "Servicio_E": "Sí", "Servicio_A": "Sí", "Longitud": -79.163976, "Latitud": -0.121423 }, "geometry": { "type": "Point", "coordinates": [ -79.16397618, -0.121422791 ] } },
{ "type": "Feature", "properties": { "AMIE": "23H00593", "NOM_INSTIT": "ESCUELA DE EDUCACIÓN BÁSICA “ROBERT KENNEDY”", "TE_fin": "MATRIZ", "ESTADO_IE_": "REGULAR", "Servicio_E": "Sí", "Servicio_A": "Sí", "Longitud": -79.302694, "Latitud": -0.134667 }, "geometry": { "type": "Point", "coordinates": [ -79.30269445, -0.13466667 ] } },
{ "type": "Feature", "properties": { "AMIE": "23H00591", "NOM_INSTIT": "ESCUELA DE EDUCACIÓN BÁSICA HUANCAVILCA", "TE_fin": "MATRIZ", "ESTADO_IE_": "REGULAR", "Servicio_E": "Sí", "Servicio_A": "Sí", "Longitud": -79.206861, "Latitud": -0.081111 }, "geometry": { "type": "Point", "coordinates": [ -79.20686111, -0.081111113 ] } },
{ "type": "Feature", "properties": { "AMIE": "23H00620", "NOM_INSTIT": "ESCUELA DE EDUCACIÓN BÁSICA \"REPÚBLICA DE ALEMANIA\"", "TE_fin": "MATRIZ", "ESTADO_IE_": "REGULAR", "Servicio_E": "Sí", "Servicio_A": "Sí", "Longitud": -79.208167, "Latitud": -0.476722 }, "geometry": { "type": "Point", "coordinates": [ -79.20816666, -0.476722225 ] } },
{ "type": "Feature", "properties": { "AMIE": "23H00501", "NOM_INSTIT": "ESCUELA DE EDUCACIÓN BÁSICA “CIUDAD DEL PUYO”", "TE_fin": "MATRIZ", "ESTADO_IE_": "REGULAR", "Servicio_E": "Sí", "Servicio_A": "Sí", "Longitud": -79.374361, "Latitud": -0.344917 }, "geometry": { "type": "Point", "coordinates": [ -79.37436111, -0.344916667 ] } },
{ "type": "Feature", "properties": { "AMIE": "23H00521", "NOM_INSTIT": "ESCUELA DE EDUCACIÓN BÁSICA “ANTONIO JOSÉ DE SUCRE”", "TE_fin": "MATRIZ", "ESTADO_IE_": "REGULAR", "Servicio_E": "Sí", "Servicio_A": "Sí", "Longitud": -79.321056, "Latitud": -0.433222 }, "geometry": { "type": "Point", "coordinates": [ -79.32105551, -0.433222358 ] } },